[{"name":"Adak","state":"Alaska","country":"United States","latitude":51.88,"longitude":-176.6580556},{"name":"Honolulu","state":"Hawaii","country":"United States","latitude":21.3069444,"longitude":-157.8583333},{"name":"Barrow","state":"Alaska","country":"United States","latitude":71.29055559999999,"longitude":-156.788611},{"name":"Hilo","state":"Hawaii","country":"United States","latitude":19.7070942,"longitude":-155.0884869},{"name":"Anchorage","state":"Alaska","country":"United States","latitude":61.2180556,"longitude":-149.9002778},{"name":"Deadhorse","state":"Alaska","country":"United States","latitude":70.20019959999999,"longitude":-148.4597191},{"name":"Fairbanks","state":"Alaska","country":"United States","latitude":64.8377778,"longitude":-147.7163888},{"name":"Sitka","state":"Alaska","country":"United States","latitude":57.0530556,"longitude":-135.33},{"name":"Whitehorse","state":"Yukon","country":"Canada","latitude":60.7211871,"longitude":-135.0568448},{"name":"Juneau","state":"Alaska","country":"United States","latitude":58.3019444,"longitude":-134.4197221},{"name":"Tuktoyaktuk","state":"Northwest Territories","country":"Canada","latitude":69.445358,"longitude":-133.034181},{"name":"Victoria","state":"British Columbia","country":"Canada","latitude":48.4284207,"longitude":-123.3656444},{"name":"Vancouver","state":"British Columbia","country":"Canada","latitude":49.2827291,"longitude":-123.1207375},{"name":"Portland","state":"Oregon","country":"United States","latitude":45.5230622,"longitude":-122.6764815},{"name":"San Francisco","state":"California","country":"United States","latitude":37.7749295,"longitude":-122.4194155},{"name":"Seattle","state":"Washington","country":"United States","latitude":47.6062095,"longitude":-122.3320708},{"name":"Sacramento","state":"California","country":"United States","latitude":38.5815719,"longitude":-121.4943996},{"name":"Kamloops","state":"British Columbia","country":"Canada","latitude":50.674522,"longitude":-120.3272675},{"name":"Reno","state":"Nevada","country":"United States","latitude":39.5296329,"longitude":-119.8138027},{"name":"Santa Barbara","state":"California","country":"United States","latitude":34.4208305,"longitude":-119.6981901},{"name":"Kelowna","state":"British Columbia","country":"Canada","latitude":49.8879519,"longitude":-119.4960106},{"name":"Grande Prairie","state":"Alberta","country":"Canada","latitude":55.1699396,"longitude":-118.7986152},{"name":"Los Angeles","state":"California","country":"United States","latitude":34.0522342,"longitude":-118.2436849},{"name":"Riverside","state":"California","country":"United States","latitude":33.9533487,"longitude":-117.3961564},{"name":"San Diego","state":"California","country":"United States","latitude":32.715738,"longitude":-117.1610838},{"name":"Tijuana","state":"Baja California","country":"Mexico","latitude":32.5149469,"longitude":-117.0382471},{"name":"Ensenada","state":"Baja California","country":"Mexico","latitude":31.8667427,"longitude":-116.5963713},{"name":"Boise","state":"Idaho","country":"United States","latitude":43.6187102,"longitude":-116.2146068},{"name":"Mexicali","state":"Baja California","country":"Mexico","latitude":32.6245389,"longitude":-115.4522623},{"name":"Las Vegas","state":"Nevada","country":"United States","latitude":36.1699412,"longitude":-115.1398296},{"name":"Yellowknife","state":"Northwest Territories","country":"Canada","latitude":62.4539717,"longitude":-114.3717887},{"name":"Calgary","state":"Alberta","country":"Canada","latitude":51.0486151,"longitude":-114.0708459},{"name":"Edmonton","state":"Alberta","country":"Canada","latitude":53.544389,"longitude":-113.4909267},{"name":"Phoenix","state":"Arizona","country":"United States","latitude":33.4483771,"longitude":-112.0740373},{"name":"Helena","state":"Montana","country":"United States","latitude":46.5883707,"longitude":-112.0245054},{"name":"Salt Lake City","state":"Utah","country":"United States","latitude":40.7607793,"longitude":-111.8910474},{"name":"Fort McMurray","state":"Alberta","country":"Canada","latitude":56.72637959999999,"longitude":-111.3803407},{"name":"Hermosillo","state":"Sonora","country":"Mexico","latitude":29.0729673,"longitude":-110.9559192},{"name":"Tucson","state":"Arizona","country":"United States","latitude":32.2217429,"longitude":-110.926479},{"name":"Cabo San Lucas","state":"Baja California Sur","country":"Mexico","latitude":22.8905327,"longitude":-109.9167371},{"name":"Culiac\u00e1n","state":"Sinaloa","country":"Mexico","latitude":24.8090649,"longitude":-107.3940117},{"name":"Saskatoon","state":"Saskatchewan","country":"Canada","latitude":52.1332144,"longitude":-106.6700458},{"name":"Albuquerque","state":"New Mexico","country":"United States","latitude":35.0853336,"longitude":-106.6055534},{"name":"Ciudad Ju\u00e1rez","state":"Chihuahua","country":"Mexico","latitude":31.6903638,"longitude":-106.4245478},{"name":"El Paso","state":"Texas","country":"United States","latitude":31.7618778,"longitude":-106.4850217},{"name":"Los Alamos","state":"New Mexico","country":"United States","latitude":35.8800364,"longitude":-106.3031138},{"name":"Chihuahua","state":"Chihuahua","country":"Mexico","latitude":28.6329957,"longitude":-106.0691004},{"name":"Santa Fe","state":"New Mexico","country":"United States","latitude":35.6869752,"longitude":-105.937799},{"name":"Boulder","state":"Colorado","country":"United States","latitude":40.0149856,"longitude":-105.2705456},{"name":"Puerto Vallarta","state":"Jalisco","country":"Mexico","latitude":20.653407,"longitude":-105.2253316},{"name":"Denver","state":"Colorado","country":"United States","latitude":39.7392358,"longitude":-104.990251},{"name":"Cheyenne","state":"Wyoming","country":"United States","latitude":41.1399814,"longitude":-104.8202462},{"name":"Durango","state":"Durango","country":"Mexico","latitude":24.0277202,"longitude":-104.6531759},{"name":"Regina","state":"Saskatchewan","country":"Canada","latitude":50.4452112,"longitude":-104.6188943},{"name":"Torre\u00f3n","state":"Coahuila","country":"Mexico","latitude":25.5428443,"longitude":-103.4067861},{"name":"Zapopan","state":"Jalisco","country":"Mexico","latitude":20.6719563,"longitude":-103.416501},{"name":"Guadalajara","state":"Jalisco","country":"Mexico","latitude":20.6596988,"longitude":-103.3496092},{"name":"Aguascalientes","state":"Aguascalientes","country":"Mexico","latitude":21.8852562,"longitude":-102.2915677},{"name":"Le\u00f3n","state":"Guanajuato","country":"Mexico","latitude":21.1250077,"longitude":-101.6859605},{"name":"San Luis Potos\u00ed","state":"San Luis Potos\u00ed","country":"Mexico","latitude":22.1564699,"longitude":-100.9855409},{"name":"Bismarck","state":"North Dakota","country":"United States","latitude":46.8083268,"longitude":-100.7837392},{"name":"Quer\u00e9taro","state":"Quer\u00e9taro","country":"Mexico","latitude":20.5887932,"longitude":-100.3898881},{"name":"Pierre","state":"South Dakota","country":"United States","latitude":44.3683156,"longitude":-100.3509665},{"name":"Monterrey","state":"Nuevo Le\u00f3n","country":"Mexico","latitude":25.6866142,"longitude":-100.3161126},{"name":"Acapulco","state":"Guerrero","country":"Mexico","latitude":16.8531086,"longitude":-99.8236533},{"name":"Mexico City Mexico City","state":"","country":"Mexico","latitude":19.4326077,"longitude":-99.133208},{"name":"San Antonio","state":"Texas","country":"United States","latitude":29.4241219,"longitude":-98.49362819999999},{"name":"Puebla","state":"Puebla","country":"Mexico","latitude":19.0414398,"longitude":-98.2062727},{"name":"Tampico","state":"Tamaulipas","country":"Mexico","latitude":22.2331041,"longitude":-97.861099},{"name":"Austin","state":"Texas","country":"United States","latitude":30.267153,"longitude":-97.7430608},{"name":"Oklahoma City","state":"Oklahoma","country":"United States","latitude":35.4675602,"longitude":-97.5164276},{"name":"Wichita","state":"Kansas","country":"United States","latitude":37.68717609999999,"longitude":-97.33005299999999},{"name":"Winnipeg","state":"Manitoba","country":"Canada","latitude":49.895136,"longitude":-97.13837439999999},{"name":"Dallas","state":"Texas","country":"United States","latitude":32.7766642,"longitude":-96.79698789999999},{"name":"Lincoln","state":"Nebraska","country":"United States","latitude":40.8257625,"longitude":-96.6851982},{"name":"Veracruz","state":"Veracruz","country":"Mexico","latitude":19.173773,"longitude":-96.1342241},{"name":"Tulsa","state":"Oklahoma","country":"United States","latitude":36.1539816,"longitude":-95.99277500000001},{"name":"Houston","state":"Texas","country":"United States","latitude":29.7604267,"longitude":-95.3698028},{"name":"Kansas City","state":"Missouri","country":"United States","latitude":39.0997265,"longitude":-94.5785667},{"name":"Des Moines","state":"Iowa","country":"United States","latitude":41.6005448,"longitude":-93.6091064},{"name":"Springfield","state":"Missouri","country":"United States","latitude":37.2089572,"longitude":-93.29229889999999},{"name":"Minneapolis","state":"Minnesota","country":"United States","latitude":44.977753,"longitude":-93.2650108},{"name":"Little Rock","state":"Arkansas","country":"United States","latitude":34.7464809,"longitude":-92.28959479999999},{"name":"Tapachula","state":"Chiapas","country":"Mexico","latitude":14.9055599,"longitude":-92.26342059999999},{"name":"Quetzaltenango","state":"","country":"Guatemala","latitude":14.8520705,"longitude":-91.5305465},{"name":"Guatemala City","state":"","country":"Guatemala","latitude":14.6349149,"longitude":-90.5068824},{"name":"St. Louis","state":"Missouri","country":"United States","latitude":38.6270025,"longitude":-90.19940419999999},{"name":"Jackson","state":"Mississippi","country":"United States","latitude":32.2987573,"longitude":-90.1848103},{"name":"New Orleans","state":"Louisiana","country":"United States","latitude":29.95106579999999,"longitude":-90.0715323},{"name":"Memphis","state":"Tennessee","country":"United States","latitude":35.1495343,"longitude":-90.0489801},{"name":"M\u00e9rida","state":"Yucat\u00e1n","country":"Mexico","latitude":20.9673702,"longitude":-89.5925857},{"name":"Thunder Bay","state":"Ontario","country":"Canada","latitude":48.3808951,"longitude":-89.2476823},{"name":"San Salvador","state":"","country":"El Salvador","latitude":13.6929403,"longitude":-89.2181911},{"name":"Belmopan","state":"","country":"Belize","latitude":17.2510114,"longitude":-88.7590201},{"name":"Belize City","state":"","country":"Belize","latitude":17.5045661,"longitude":-88.1962133},{"name":"Mobile","state":"Alabama","country":"United States","latitude":30.6953657,"longitude":-88.0398912},{"name":"Milwaukee","state":"Wisconsin","country":"United States","latitude":43.0389025,"longitude":-87.9064736},{"name":"Chicago","state":"Illinois","country":"United States","latitude":41.8781136,"longitude":-87.6297982},{"name":"Tegucigalpa","state":"","country":"Honduras","latitude":14.0722751,"longitude":-87.19213599999999},{"name":"Chinandega","state":"","country":"Nicaragua","latitude":12.6234721,"longitude":-87.1273253},{"name":"Canc\u00fan","state":"Quintana Roo","country":"Mexico","latitude":21.161908,"longitude":-86.8515279},{"name":"Birmingham","state":"Alabama","country":"United States","latitude":33.5206608,"longitude":-86.80248999999999},{"name":"Nashville","state":"Tennessee","country":"United States","latitude":36.1626638,"longitude":-86.7816016},{"name":"Managua","state":"","country":"Nicaragua","latitude":12.1149926,"longitude":-86.2361744},{"name":"Indianapolis","state":"Indiana","country":"United States","latitude":39.768403,"longitude":-86.158068},{"name":"Eureka","state":"Nunavut","country":"Canada","latitude":79.9888928,"longitude":-85.94076969999999},{"name":"Louisville","state":"Kentucky","country":"United States","latitude":38.2526647,"longitude":-85.7584557},{"name":"Liberia","state":"","country":"Costa Rica","latitude":10.6345964,"longitude":-85.4406747},{"name":"Fort Wayne","state":"Indiana","country":"United States","latitude":41.079273,"longitude":-85.1393513},{"name":"Puntarenas","state":"","country":"Costa Rica","latitude":9.9778439,"longitude":-84.82942109999999},{"name":"Cincinnati","state":"Ohio","country":"United States","latitude":39.1031182,"longitude":-84.5120196},{"name":"Atlanta","state":"Georgia","country":"United States","latitude":33.7489954,"longitude":-84.3879824},{"name":"Sault Ste. Marie","state":"Ontario","country":"Canada","latitude":46.52185799999999,"longitude":-84.3460896},{"name":"Alajuela","state":"","country":"Costa Rica","latitude":10.0159394,"longitude":-84.21417009999999},{"name":"San Jos\u00e9","state":"","country":"Costa Rica","latitude":9.9280694,"longitude":-84.0907246},{"name":"Knoxville","state":"Tennessee","country":"United States","latitude":35.9606384,"longitude":-83.9207392},{"name":"Detroit","state":"Michigan","country":"United States","latitude":42.331427,"longitude":-83.0457538},{"name":"Lim\u00f3n","state":"","country":"Costa Rica","latitude":9.9913106,"longitude":-83.04150779999999},{"name":"Windsor","state":"Ontario","country":"Canada","latitude":42.3149367,"longitude":-83.03636329999999},{"name":"Columbus","state":"Ohio","country":"United States","latitude":39.9611755,"longitude":-82.99879419999999},{"name":"Grise Fiord","state":"Nunavut","country":"Canada","latitude":76.4189856,"longitude":-82.90160829999999},{"name":"Tampa","state":"Florida","country":"United States","latitude":27.950575,"longitude":-82.4571776},{"name":"Havana","state":"","country":"Cuba","latitude":23.1135925,"longitude":-82.3665956},{"name":"Key West","state":"Florida","country":"United States","latitude":24.5550593,"longitude":-81.7799871},{"name":"Cleveland","state":"Ohio","country":"United States","latitude":41.49932,"longitude":-81.6943605},{"name":"Jacksonville","state":"Florida","country":"United States","latitude":30.3321838,"longitude":-81.65565099999999},{"name":"Charleston","state":"West Virginia","country":"United States","latitude":38.3498195,"longitude":-81.6326234},{"name":"George Town","state":"Cayman Islands","country":"United Kingdom","latitude":0,"longitude":0},{"name":"Orlando","state":"Florida","country":"United States","latitude":28.5383355,"longitude":-81.3792365},{"name":"Columbia","state":"South Carolina","country":"United States","latitude":34.0007104,"longitude":-81.0348144},{"name":"Sudbury","state":"Ontario","country":"Canada","latitude":46.522099,"longitude":-80.9530353},{"name":"Charlotte","state":"North Carolina","country":"United States","latitude":35.2270869,"longitude":-80.8431267},{"name":"Miami","state":"Florida","country":"United States","latitude":25.7616798,"longitude":-80.1917902},{"name":"Pittsburgh","state":"Pennsylvania","country":"United States","latitude":40.44062479999999,"longitude":-79.9958864},{"name":"Panama City","state":"","country":"Panama","latitude":8.9823792,"longitude":-79.51986959999999},{"name":"North Bay","state":"Ontario","country":"Canada","latitude":46.3091152,"longitude":-79.4608204},{"name":"Toronto","state":"Ontario","country":"Canada","latitude":43.653226,"longitude":-79.3831843},{"name":"Buffalo","state":"New York","country":"United States","latitude":42.88644679999999,"longitude":-78.8783689},{"name":"Raleigh","state":"North Carolina","country":"United States","latitude":35.7795897,"longitude":-78.6381787},{"name":"Wilmington","state":"North Carolina","country":"United States","latitude":34.2257255,"longitude":-77.9447102},{"name":"Rochester","state":"New York","country":"United States","latitude":43.16103,"longitude":-77.6109219},{"name":"Nassau","state":"","country":"Bahamas","latitude":25.0479835,"longitude":-77.355413},{"name":"Washington","state":"District of Columbia","country":"United States","latitude":38.9071923,"longitude":-77.0368707},{"name":"Kingston","state":"","country":"Jamaica","latitude":18.0178743,"longitude":-76.8099041},{"name":"Baltimore","state":"Maryland","country":"United States","latitude":39.2903848,"longitude":-76.6121893},{"name":"Santiago de Cali","state":"","country":"Colombia","latitude":3.4516467,"longitude":-76.5319854},{"name":"Virginia Beach","state":"Virginia","country":"United States","latitude":36.8529263,"longitude":-75.97798499999999},{"name":"Santiago de Cuba","state":"","country":"Cuba","latitude":20.01693,"longitude":-75.8301537},{"name":"Ottawa","state":"Ontario","country":"Canada","latitude":45.4215296,"longitude":-75.69719309999999},{"name":"Medell\u00edn","state":"","country":"Colombia","latitude":6.244203,"longitude":-75.5812119},{"name":"Dover","state":"Delaware","country":"United States","latitude":39.158168,"longitude":-75.5243682},{"name":"Cartagena","state":"","country":"Colombia","latitude":10.3910485,"longitude":-75.4794257},{"name":"Philadelphia","state":"Pennsylvania","country":"United States","latitude":39.9525839,"longitude":-75.1652215},{"name":"Barranquilla","state":"","country":"Colombia","latitude":11.0041072,"longitude":-74.80698129999999},{"name":"Trenton","state":"New Jersey","country":"United States","latitude":40.2170534,"longitude":-74.7429384},{"name":"Forked River","state":"New Jersey","country":"United States","latitude":39.8398413,"longitude":-74.19013989999999},{"name":"Bogot\u00e1","state":"","country":"Colombia","latitude":4.710988599999999,"longitude":-74.072092},{"name":"Jersey City","state":"New Jersey","country":"United States","latitude":40.72815749999999,"longitude":-74.0776417},{"name":"New York City","state":"New York","country":"United States","latitude":40.7127753,"longitude":-74.0059728},{"name":"Montreal","state":"Quebec","country":"Canada","latitude":45.5016889,"longitude":-73.567256},{"name":"Hartford","state":"Connecticut","country":"United States","latitude":41.76371109999999,"longitude":-72.6850932},{"name":"Montpelier","state":"Vermont","country":"United States","latitude":44.26005929999999,"longitude":-72.5753869},{"name":"C\u00facuta","state":"","country":"Colombia","latitude":7.8890971,"longitude":-72.4966896},{"name":"Port-au-Prince","state":"","country":"Haiti","latitude":18.594395,"longitude":-72.3074326},{"name":"Maracaibo","state":"","country":"Venezuela","latitude":10.6544509,"longitude":-71.7147951},{"name":"Concord","state":"New Hampshire","country":"United States","latitude":43.2081366,"longitude":-71.5375718},{"name":"Providence","state":"Rhode Island","country":"United States","latitude":41.8239891,"longitude":-71.4128343},{"name":"Quebec City","state":"Quebec","country":"Canada","latitude":46.8138783,"longitude":-71.2079809},{"name":"Cockburn Town","state":"Turks and Caicos Islands","country":"United Kingdom","latitude":21.4674584,"longitude":-71.13891009999999},{"name":"Boston","state":"Massachusetts","country":"United States","latitude":42.3600825,"longitude":-71.0588801},{"name":"Oranjestad","state":"Aruba","country":"Netherlands","latitude":12.5092044,"longitude":-70.0086306},{"name":"Santo Domingo","state":"","country":"Dominican Republic","latitude":18.4860575,"longitude":-69.93121169999999},{"name":"Augusta","state":"Maine","country":"United States","latitude":44.3106241,"longitude":-69.7794897},{"name":"Qaanaaq","state":"Greenland","country":"Denmark","latitude":77.4670434,"longitude":-69.2284827},{"name":"Willemstad","state":"Cura\u00e7ao","country":"Netherlands","latitude":12.1224221,"longitude":-68.8824233},{"name":"Iqaluit","state":"Nunavut","country":"Canada","latitude":63.74669300000001,"longitude":-68.5169669},{"name":"Puerto Ayacucho","state":"","country":"Venezuela","latitude":5.6614718,"longitude":-67.58277439999999},{"name":"Maracay","state":"","country":"Venezuela","latitude":10.2441931,"longitude":-67.60661640000001},{"name":"Caracas","state":"","country":"Venezuela","latitude":10.4805937,"longitude":-66.90360629999999},{"name":"Fredericton","state":"New Brunswick","country":"Canada","latitude":45.9635895,"longitude":-66.6431151},{"name":"Yarmouth","state":"Nova Scotia","country":"Canada","latitude":43.8374576,"longitude":-66.11738199999999},{"name":"Saint John","state":"New Brunswick","country":"Canada","latitude":45.2733153,"longitude":-66.06330799999999},{"name":"San Juan","state":"Puerto Rico","country":"United States","latitude":18.4655394,"longitude":-66.1057355},{"name":"Charlotte Amalie","state":"United States Virgin Islands","country":"United States","latitude":18.3419004,"longitude":-64.9307007},{"name":"Hamilton","state":"Bermuda","country":"United Kingdom","latitude":52.4989983,"longitude":-1.4764289},{"name":"Moncton","state":"New Brunswick","country":"Canada","latitude":46.0878165,"longitude":-64.7782313},{"name":"Road Town","state":"British Virgin Islands","country":"United Kingdom","latitude":0,"longitude":0},{"name":"Ciudad Bol\u00edvar","state":"","country":"Venezuela","latitude":8.088279100000001,"longitude":-63.5535552},{"name":"Halifax","state":"Nova Scotia","country":"Canada","latitude":44.64876350000001,"longitude":-63.5752387},{"name":"Charlottetown","state":"Prince Edward Island","country":"Canada","latitude":46.23824,"longitude":-63.13107040000001},{"name":"The Valley","state":"Anguilla","country":"United Kingdom","latitude":50.7875623,"longitude":0.3289384},{"name":"Basseterre","state":"","country":"Saint Kitts and Nevis","latitude":17.3026058,"longitude":-62.7176924},{"name":"Alert","state":"Nunavut","country":"Canada","latitude":82.5017771,"longitude":-62.3480917},{"name":"St. John's","state":"","country":"Antigua and Barbuda","latitude":17.1274104,"longitude":-61.84677199999999},{"name":"St. George's","state":"","country":"Grenada","latitude":12.0560975,"longitude":-61.7487996},{"name":"Basse-Terre","state":"Guadeloupe","country":"France","latitude":16.0341215,"longitude":-61.6947193},{"name":"Port of Spain","state":"","country":"Trinidad and Tobago","latitude":10.6549013,"longitude":-61.50192559999999},{"name":"San Fernando","state":"","country":"Trinidad and Tobago","latitude":10.2905853,"longitude":-61.4493842},{"name":"Roseau","state":"","country":"Dominica","latitude":15.3091676,"longitude":-61.37935539999999},{"name":"Chaguanas","state":"","country":"Trinidad and Tobago","latitude":10.5331201,"longitude":-61.39685979999999},{"name":"Kingstown","state":"","country":"Saint Vincent and the Grenadines","latitude":13.1600249,"longitude":-61.2248157},{"name":"Fort-de-France","state":"Martinique","country":"France","latitude":14.6160647,"longitude":-61.0587804},{"name":"Castries","state":"","country":"Saint Lucia","latitude":14.0101094,"longitude":-60.98746869999999},{"name":"Boa Vista","state":"Roraima","country":"Brazil","latitude":2.8235098,"longitude":-60.6758331},{"name":"Bridgetown","state":"","country":"Barbados","latitude":13.0968511,"longitude":-59.61448189999999},{"name":"Georgetown","state":"","country":"Guyana","latitude":6.8012793,"longitude":-58.1551255},{"name":"Saint-Pierre","state":"Saint Pierre and Miquelon","country":"France","latitude":46.7758459,"longitude":-56.1806363},{"name":"Upernavik","state":"Greenland","country":"Denmark","latitude":72.7862882,"longitude":-56.1375527},{"name":"Paramaribo","state":"","country":"Suriname","latitude":5.8520355,"longitude":-55.2038278},{"name":"St. John's","state":"Newfoundland and Labrador","country":"Canada","latitude":47.5615096,"longitude":-52.7125768},{"name":"Cayenne","state":"French Guiana","country":"France","latitude":4.92242,"longitude":-52.3134531},{"name":"Nuuk (Godth\u00e5b)","state":"Greenland","country":"Denmark","latitude":0,"longitude":0},{"name":"Macap\u00e1","state":"Amap\u00e1","country":"Brazil","latitude":0.0355735,"longitude":-51.070535},{"name":"Qaqortoq","state":"Greenland","country":"Denmark","latitude":60.71898640000001,"longitude":-46.03534579999999},{"name":"Flores Island","state":"Azores","country":"Portugal","latitude":39.4474713,"longitude":-31.193945},{"name":"Horta","state":"Azores","country":"Portugal","latitude":38.5348447,"longitude":-28.6299812},{"name":"Angra do Hero\u00edsmo","state":"Azores","country":"Portugal","latitude":38.6635375,"longitude":-27.2293969},{"name":"Ponta Delgada","state":"Azores","country":"Portugal","latitude":37.7428301,"longitude":-25.6805868},{"name":"Praia","state":"","country":"Cape Verde","latitude":14.93305,"longitude":-23.5133267},{"name":"\u00cdsafj\u00f6r\u00f0ur","state":"","country":"Iceland","latitude":66.0611061,"longitude":-23.1888598},{"name":"Reykjav\u00edk","state":"","country":"Iceland","latitude":64.12652059999999,"longitude":-21.8174392},{"name":"Akureyri","state":"","country":"Iceland","latitude":65.68849209999999,"longitude":-18.1261694},{"name":"Dakar","state":"","country":"Senegal","latitude":14.716677,"longitude":-17.4676861},{"name":"Thi\u00e8s","state":"","country":"Senegal","latitude":14.7910052,"longitude":-16.9358604},{"name":"Funchal","state":"Madeira","country":"Portugal","latitude":32.6669328,"longitude":-16.9240554},{"name":"Nord","state":"Greenland","country":"Denmark","latitude":71.706936,"longitude":-42.604303},{"name":"Serekunda","state":"","country":"Gambia","latitude":13.4502991,"longitude":-16.6880841},{"name":"Brikama","state":"","country":"Gambia","latitude":13.2747943,"longitude":-16.6409198},{"name":"Banjul","state":"","country":"Gambia","latitude":13.4548761,"longitude":-16.5790323},{"name":"Santa Cruz de Tenerife","state":"Canary Islands","country":"Spain","latitude":28.4636296,"longitude":-16.2518467},{"name":"Nouakchott","state":"","country":"Mauritania","latitude":18.0735299,"longitude":-15.9582372},{"name":"Bissau","state":"","country":"Guinea-Bissau","latitude":11.8816553,"longitude":-15.6177942},{"name":"Las Palmas de Gran Canaria","state":"Canary Islands","country":"Spain","latitude":28.1235459,"longitude":-15.4362574},{"name":"Conakry","state":"","country":"Guinea","latitude":9.641185499999999,"longitude":-13.5784012},{"name":"Freetown","state":"","country":"Sierra Leone","latitude":8.4656765,"longitude":-13.2317225},{"name":"El Aai\u00fan","state":"Western Sahara","country":"Morocco","latitude":27.1500384,"longitude":-13.1990758},{"name":"Monrovia","state":"","country":"Liberia","latitude":6.2907432,"longitude":-10.7605239},{"name":"Lisbon","state":"","country":"Portugal","latitude":38.7222524,"longitude":-9.1393366},{"name":"Nz\u00e9r\u00e9kor\u00e9","state":"","country":"Guinea","latitude":7.747835899999999,"longitude":-8.8252502},{"name":"Porto","state":"","country":"Portugal","latitude":41.1579438,"longitude":-8.629105299999999},{"name":"Cork","state":"","country":"Ireland","latitude":51.8968917,"longitude":-8.4863157},{"name":"Marrakech","state":"","country":"Morocco","latitude":31.6294723,"longitude":-7.981084500000001},{"name":"Bamako","state":"","country":"Mali","latitude":12.6392316,"longitude":-8.0028892},{"name":"Casablanca","state":"","country":"Morocco","latitude":33.5731104,"longitude":-7.589843399999999},{"name":"Koulikoro","state":"","country":"Mali","latitude":13.8018074,"longitude":-7.4381355},{"name":"Rabat","state":"","country":"Morocco","latitude":33.9715904,"longitude":-6.8498129},{"name":"T\u00f3rshavn","state":"Faroe Islands","country":"Denmark","latitude":62.0089826,"longitude":-6.7697024},{"name":"Dublin","state":"","country":"Ireland","latitude":53.3498053,"longitude":-6.2603097},{"name":"Sevilla","state":"Andalusia","country":"Spain","latitude":37.3890924,"longitude":-5.9844589},{"name":"Belfast","state":"Northern Ireland","country":"United Kingdom","latitude":54.59728500000001,"longitude":-5.93012},{"name":"Gibraltar","state":"Gibraltar","country":"United Kingdom","latitude":36.140751,"longitude":-5.353585},{"name":"Yamoussoukro","state":"","country":"Ivory Coast","latitude":6.827622799999999,"longitude":-5.2893433},{"name":"Douglas","state":"Isle of Man","country":"United Kingdom","latitude":54.1523372,"longitude":-4.4861228},{"name":"Brest","state":"Brittany","country":"France","latitude":48.390394,"longitude":-4.486076},{"name":"M\u00e1laga","state":"Andalusia","country":"Spain","latitude":36.7212737,"longitude":-4.4213988},{"name":"Bobo-Dioulasso","state":"","country":"Burkina Faso","latitude":11.1649219,"longitude":-4.3051542},{"name":"Glasgow","state":"Scotland","country":"United Kingdom","latitude":55.864237,"longitude":-4.251806},{"name":"Inverness","state":"Scotland","country":"United Kingdom","latitude":57.477773,"longitude":-4.224721},{"name":"Plymouth","state":"England","country":"United Kingdom","latitude":50.3754565,"longitude":-4.1426565},{"name":"Abidjan","state":"","country":"Ivory Coast","latitude":5.3599517,"longitude":-4.0082563},{"name":"Swansea","state":"Wales","country":"United Kingdom","latitude":51.62144,"longitude":-3.943645999999999},{"name":"Madrid","state":"Madrid","country":"Spain","latitude":40.4167754,"longitude":-3.7037902},{"name":"Exeter","state":"England","country":"United Kingdom","latitude":50.718412,"longitude":-3.533899},{"name":"Edinburgh","state":"Scotland","country":"United Kingdom","latitude":55.953252,"longitude":-3.188267},{"name":"Cardiff","state":"Wales","country":"United Kingdom","latitude":51.48158100000001,"longitude":-3.17909},{"name":"Timbuktu","state":"","country":"Mali","latitude":16.7665887,"longitude":-3.0025615},{"name":"Liverpool","state":"England","country":"United Kingdom","latitude":53.4083714,"longitude":-2.9915726},{"name":"Dundee","state":"Scotland","country":"United Kingdom","latitude":56.462018,"longitude":-2.970721},{"name":"Bilbao","state":"Basque Country","country":"Spain","latitude":43.2630126,"longitude":-2.9349852},{"name":"Bristol","state":"England","country":"United Kingdom","latitude":51.454513,"longitude":-2.58791},{"name":"Bath","state":"England","country":"United Kingdom","latitude":51.375801,"longitude":-2.3599039},{"name":"Gloucester","state":"England","country":"United Kingdom","latitude":51.8642449,"longitude":-2.238156},{"name":"Manchester","state":"England","country":"United Kingdom","latitude":53.4807593,"longitude":-2.2426305},{"name":"Aberdeen","state":"Scotland","country":"United Kingdom","latitude":57.149717,"longitude":-2.094278},{"name":"Birmingham","state":"England","country":"United Kingdom","latitude":52.48624299999999,"longitude":-1.890401},{"name":"Sekondi-Takoradi","state":"","country":"Ghana","latitude":4.9015794,"longitude":-1.7830973},{"name":"Bradford","state":"England","country":"United Kingdom","latitude":53.795984,"longitude":-1.759398},{"name":"Kumasi","state":"","country":"Ghana","latitude":6.6666004,"longitude":-1.6162709},{"name":"Newcastle upon Tyne","state":"England","country":"United Kingdom","latitude":54.978252,"longitude":-1.61778},{"name":"Nantes","state":"","country":"France","latitude":47.218371,"longitude":-1.553621},{"name":"Leeds","state":"England","country":"United Kingdom","latitude":53.8007554,"longitude":-1.5490774},{"name":"Ouagadougou","state":"","country":"Burkina Faso","latitude":12.3714277,"longitude":-1.5196603},{"name":"Coventry","state":"England","country":"United Kingdom","latitude":52.406822,"longitude":-1.519693},{"name":"Sheffield","state":"England","country":"United Kingdom","latitude":53.38112899999999,"longitude":-1.470085},{"name":"Southampton","state":"England","country":"United Kingdom","latitude":50.90970040000001,"longitude":-1.4043509},{"name":"Oxford","state":"England","country":"United Kingdom","latitude":51.7520209,"longitude":-1.2577263},{"name":"Nottingham","state":"England","country":"United Kingdom","latitude":52.95478319999999,"longitude":-1.1581086},{"name":"Leicester","state":"England","country":"United Kingdom","latitude":52.6368778,"longitude":-1.1397592},{"name":"Portsmouth","state":"England","country":"United Kingdom","latitude":50.8197675,"longitude":-1.0879769},{"name":"Zaragoza","state":"Aragon","country":"Spain","latitude":41.6488226,"longitude":-0.8890853},{"name":"Tamale","state":"","country":"Ghana","latitude":9.403422599999999,"longitude":-0.8424159999999999},{"name":"Bordeaux","state":"","country":"France","latitude":44.837789,"longitude":-0.57918},{"name":"Valencia","state":"Valencian Community","country":"Spain","latitude":39.4699075,"longitude":-0.3762881},{"name":"Peterborough","state":"England","country":"United Kingdom","latitude":52.56949849999999,"longitude":-0.2405299},{"name":"Accra","state":"","country":"Ghana","latitude":5.6037168,"longitude":-0.1869644},{"name":"Brighton and Hove","state":"England","country":"United Kingdom","latitude":50.8226288,"longitude":-0.137047},{"name":"London","state":"England","country":"United Kingdom","latitude":51.5073509,"longitude":-0.1277583},{"name":"Greenwich","state":"England","country":"United Kingdom","latitude":51.48257659999999,"longitude":-0.0076589},{"name":"Le Havre","state":"Normandy","country":"France","latitude":49.49437,"longitude":0.107929},{"name":"Cambridge","state":"England","country":"United Kingdom","latitude":52.205337,"longitude":0.121817},{"name":"Lleida","state":"Catalonia","country":"Spain","latitude":41.6175899,"longitude":0.6200146},{"name":"Rouen","state":"Normandy","country":"France","latitude":49.44323199999999,"longitude":1.099971},{"name":"Lom\u00e9","state":"","country":"Togo","latitude":6.1724969,"longitude":1.2313618},{"name":"Norwich","state":"England","country":"United Kingdom","latitude":52.6308859,"longitude":1.297355},{"name":"Tiaret","state":"","country":"Algeria","latitude":35.3673553,"longitude":1.3220322},{"name":"Ibiza","state":"Balearic Islands","country":"Spain","latitude":39.0200099,"longitude":1.4821482},{"name":"Toulouse","state":"","country":"France","latitude":43.604652,"longitude":1.444209},{"name":"Andorra la Vella","state":"","country":"Andorra","latitude":42.50631740000001,"longitude":1.5218355},{"name":"Calais","state":"","country":"France","latitude":50.95129000000001,"longitude":1.858686},{"name":"Orl\u00e9ans","state":"","country":"France","latitude":47.902964,"longitude":1.909251},{"name":"Niamey","state":"","country":"Niger","latitude":13.5115963,"longitude":2.1253854},{"name":"Barcelona","state":"Catalonia","country":"Spain","latitude":41.3850639,"longitude":2.1734035},{"name":"Paris","state":"","country":"France","latitude":48.856614,"longitude":2.3522219},{"name":"Cotonou","state":"","country":"Benin","latitude":6.3702928,"longitude":2.3912362},{"name":"Porto-Novo","state":"","country":"Benin","latitude":6.4968574,"longitude":2.6288523},{"name":"Palma","state":"Balearic Islands","country":"Spain","latitude":39.5696005,"longitude":2.6501603},{"name":"Algiers","state":"","country":"Algeria","latitude":36.753768,"longitude":3.0587561},{"name":"Lagos","state":"","country":"Nigeria","latitude":6.5243793,"longitude":3.3792057},{"name":"Ghent","state":"","country":"Belgium","latitude":51.0543422,"longitude":3.7174243},{"name":"Ibadan","state":"","country":"Nigeria","latitude":7.3775355,"longitude":3.9470396},{"name":"The Hague","state":"South Holland","country":"Netherlands","latitude":52.0704978,"longitude":4.3006999},{"name":"Brussels","state":"","country":"Belgium","latitude":50.8503463,"longitude":4.3517211},{"name":"Antwerp","state":"","country":"Belgium","latitude":51.2194475,"longitude":4.4024643},{"name":"Charleroi","state":"","country":"Belgium","latitude":50.4108095,"longitude":4.444643},{"name":"Rotterdam","state":"South Holland","country":"Netherlands","latitude":51.9244201,"longitude":4.4777326},{"name":"Leiden","state":"South Holland","country":"Netherlands","latitude":52.1601144,"longitude":4.4970097},{"name":"Haarlem","state":"North Holland","country":"Netherlands","latitude":52.3873878,"longitude":4.6462194},{"name":"Lyon","state":"","country":"France","latitude":45.764043,"longitude":4.835659},{"name":"Amsterdam","state":"North Holland","country":"Netherlands","latitude":52.3702157,"longitude":4.895167900000001},{"name":"Utrecht","state":"Utrecht","country":"Netherlands","latitude":52.09073739999999,"longitude":5.1214201},{"name":"Bergen","state":"","country":"Norway","latitude":60.39126279999999,"longitude":5.3220544},{"name":"Marseille","state":"","country":"France","latitude":43.296482,"longitude":5.36978},{"name":"Benin City","state":"","country":"Nigeria","latitude":6.334986,"longitude":5.6037465},{"name":"Maastricht","state":"Limburg","country":"Netherlands","latitude":50.8513682,"longitude":5.6909725},{"name":"Luxembourg","state":"","country":"Luxembourg","latitude":49.61162100000001,"longitude":6.1319346},{"name":"Geneva","state":"","country":"Switzerland","latitude":46.2043907,"longitude":6.1431577},{"name":"Groningen","state":"Groningen","country":"Netherlands","latitude":53.2193835,"longitude":6.5665017},{"name":"Lausanne","state":"","country":"Switzerland","latitude":46.5196535,"longitude":6.6322734},{"name":"São Tomé","state":"","country":"São Tomé and Príncipe","latitude":0.3301924,"longitude":6.733343},{"name":"D\u00fcsseldorf","state":"North Rhine-Westphalia","country":"Germany","latitude":51.2277411,"longitude":6.7734556},{"name":"Enschede","state":"Overijssel","country":"Netherlands","latitude":52.2215372,"longitude":6.8936619},{"name":"Cologne","state":"North Rhine-Westphalia","country":"Germany","latitude":50.937531,"longitude":6.9602786},{"name":"Port Harcourt","state":"","country":"Nigeria","latitude":4.815554,"longitude":7.0498442},{"name":"Cannes","state":"","country":"France","latitude":43.552847,"longitude":7.017369},{"name":"Nice","state":"","country":"France","latitude":43.7101728,"longitude":7.261953200000001},{"name":"Monaco","state":"","country":"Monaco","latitude":43.73841760000001,"longitude":7.424615799999999},{"name":"Bern","state":"","country":"Switzerland","latitude":46.9479739,"longitude":7.4474468},{"name":"Abuja","state":"","country":"Nigeria","latitude":9.0764785,"longitude":7.398574},{"name":"Enugu","state":"","country":"Nigeria","latitude":6.4583661,"longitude":7.5463885},{"name":"Basel","state":"","country":"Switzerland","latitude":47.5595986,"longitude":7.5885761},{"name":"Turin","state":"Piedmont","country":"Italy","latitude":45.070312,"longitude":7.686856499999999},{"name":"Strasbourg","state":"","country":"France","latitude":48.5734053,"longitude":7.752111299999999},{"name":"Kristiansand","state":"","country":"Norway","latitude":58.15991189999999,"longitude":8.0182064},{"name":"Esbjerg","state":"","country":"Denmark","latitude":55.476466,"longitude":8.459405},{"name":"Kano","state":"","country":"Nigeria","latitude":12.0021794,"longitude":8.591956099999999},{"name":"Z\u00fcrich","state":"","country":"Switzerland","latitude":47.3768866,"longitude":8.541694},{"name":"Frankfurt am Main","state":"Hesse","country":"Germany","latitude":50.1109221,"longitude":8.6821267},{"name":"Malabo","state":"","country":"Equatorial Guinea","latitude":3.7504118,"longitude":8.7371039},{"name":"Bremen","state":"Bremen","country":"Germany","latitude":53.07929619999999,"longitude":8.8016936},{"name":"Cagliari","state":"Sardinia","country":"Italy","latitude":39.2238411,"longitude":9.1216613},{"name":"Stuttgart","state":"Baden-W\u00fcrttemberg","country":"Germany","latitude":48.7758459,"longitude":9.1829321},{"name":"Milan","state":"Lombardy","country":"Italy","latitude":45.4642035,"longitude":9.189982},{"name":"Libreville","state":"","country":"Gabon","latitude":0.4161976,"longitude":9.4672676},{"name":"Vaduz","state":"","country":"Liechtenstein","latitude":47.1410303,"longitude":9.5209277},{"name":"Douala","state":"","country":"Cameroon","latitude":4.0510564,"longitude":9.7678687},{"name":"Hannover","state":"Lower Saxony","country":"Germany","latitude":52.3758916,"longitude":9.732010400000002},{"name":"Hamburg","state":"Hamburg","country":"Germany","latitude":53.5510846,"longitude":9.9936819},{"name":"Kiel","state":"Schleswig-Holstein","country":"Germany","latitude":54.3232927,"longitude":10.1227651},{"name":"Tunis","state":"","country":"Tunisia","latitude":36.8064948,"longitude":10.1815316},{"name":"Aarhus","state":"","country":"Denmark","latitude":56.162939,"longitude":10.203921},{"name":"Odense","state":"","country":"Denmark","latitude":55.40375599999999,"longitude":10.40237},{"name":"Trondheim","state":"","country":"Norway","latitude":63.4305149,"longitude":10.3950528},{"name":"Lillehammer","state":"","country":"Norway","latitude":61.1152713,"longitude":10.4662306},{"name":"Oslo","state":"","country":"Norway","latitude":59.9138688,"longitude":10.7522454},{"name":"Sfax","state":"","country":"Tunisia","latitude":34.739822,"longitude":10.7600196},{"name":"Stj\u00f8rdal","state":"","country":"Norway","latitude":63.46777769999999,"longitude":10.9175559},{"name":"Sarpsborg","state":"","country":"Norway","latitude":59.28407290000001,"longitude":11.1094028},{"name":"Florence","state":"Tuscany","country":"Italy","latitude":43.7695604,"longitude":11.2558136},{"name":"Bologna","state":"Emilia-Romagna","country":"Italy","latitude":44.494887,"longitude":11.3426162},{"name":"Innsbruck","state":"","country":"Austria","latitude":47.2692124,"longitude":11.4041024},{"name":"Yaound\u00e9","state":"","country":"Cameroon","latitude":3.8480325,"longitude":11.5020752},{"name":"Munich","state":"Bavaria","country":"Germany","latitude":48.1351253,"longitude":11.5819805},{"name":"Ny-\u00c5lesund","state":"Svalbard","country":"Norway","latitude":78.9235381,"longitude":11.9098952},{"name":"Gothenburg","state":"","country":"Sweden","latitude":57.70887,"longitude":11.97456},{"name":"Venice","state":"Veneto","country":"Italy","latitude":45.4408474,"longitude":12.3155151},{"name":"Leipzig","state":"Saxony","country":"Germany","latitude":51.3396955,"longitude":12.3730747},{"name":"San Marino","state":"","country":"San Marino","latitude":43.9355907,"longitude":12.4472806},{"name":"Vatican City","state":"","country":"Vatican City","latitude":41.902916,"longitude":12.453389},{"name":"Rome","state":"Lazio","country":"Italy","latitude":41.9027835,"longitude":12.4963655},{"name":"Copenhagen","state":"","country":"Denmark","latitude":55.6760968,"longitude":12.5683372},{"name":"Malm\u00f6","state":"","country":"Sweden","latitude":55.604981,"longitude":13.003822},{"name":"Salzburg","state":"","country":"Austria","latitude":47.80949,"longitude":13.05501},{"name":"Tripoli","state":"","country":"Libya","latitude":32.8872094,"longitude":13.1913383},{"name":"Palermo","state":"Sicily","country":"Italy","latitude":38.1156879,"longitude":13.3612671},{"name":"Berlin","state":"Berlin","country":"Germany","latitude":52.52000659999999,"longitude":13.404954},{"name":"Dresden","state":"Saxony","country":"Germany","latitude":51.0504088,"longitude":13.7372621},{"name":"Naples","state":"Campania","country":"Italy","latitude":40.8517746,"longitude":14.2681244},{"name":"Linz","state":"","country":"Austria","latitude":48.30694,"longitude":14.28583},{"name":"Prague","state":"","country":"Czech Republic","latitude":50.0755381,"longitude":14.4378005},{"name":"Sabha","state":"","country":"Libya","latitude":27.0365406,"longitude":14.4290236},{"name":"Birkirkara","state":"","country":"Malta","latitude":35.8954706,"longitude":14.4665072},{"name":"Ljubljana","state":"","country":"Slovenia","latitude":46.0569465,"longitude":14.5057515},{"name":"Valletta","state":"","country":"Malta","latitude":35.8989085,"longitude":14.5145528},{"name":"Bod\u00f8","state":"","country":"Norway","latitude":67.2803556,"longitude":14.404916},{"name":"\u00d6stersund","state":"","country":"Sweden","latitude":63.1766832,"longitude":14.6360681},{"name":"N'Djamena","state":"","country":"Chad","latitude":12.1348457,"longitude":15.0557415},{"name":"Catania","state":"Sicily","country":"Italy","latitude":37.5078772,"longitude":15.0830304},{"name":"Graz","state":"","country":"Austria","latitude":47.070714,"longitude":15.439504},{"name":"Messina","state":"Sicily","country":"Italy","latitude":38.1938137,"longitude":15.5540152},{"name":"Longyearbyen","state":"Svalbard","country":"Norway","latitude":78.22317220000001,"longitude":15.6267229},{"name":"Zagreb","state":"","country":"Croatia","latitude":45.8150108,"longitude":15.9819189},{"name":"Moundou","state":"","country":"Chad","latitude":8.5914775,"longitude":16.0757749},{"name":"Norrk\u00f6ping","state":"","country":"Sweden","latitude":58.587745,"longitude":16.192421},{"name":"Vienna","state":"","country":"Austria","latitude":48.2081743,"longitude":16.3738189},{"name":"Split","state":"","country":"Croatia","latitude":43.5081323,"longitude":16.4401935},{"name":"Bratislava","state":"","country":"Slovakia","latitude":48.1485965,"longitude":17.1077478},{"name":"Sundsvall","state":"","country":"Sweden","latitude":62.390811,"longitude":17.306927},{"name":"Narvik","state":"","country":"Norway","latitude":68.4384984,"longitude":17.4272613},{"name":"Uppsala","state":"","country":"Sweden","latitude":59.85856380000001,"longitude":17.6389267},{"name":"Stockholm","state":"","country":"Sweden","latitude":59.32932349999999,"longitude":18.0685808},{"name":"Sarajevo","state":"","country":"Bosnia and Herzegovina","latitude":43.8562586,"longitude":18.4130763},{"name":"Gdynia","state":"","country":"Poland","latitude":54.5188898,"longitude":18.5305409},{"name":"Bangui","state":"","country":"Central African Republic","latitude":4.3946735,"longitude":18.5581899},{"name":"Gda\u0144sk","state":"","country":"Poland","latitude":54.35202520000001,"longitude":18.6466384},{"name":"\u00d6rnsk\u00f6ldsvik","state":"","country":"Sweden","latitude":63.29004740000001,"longitude":18.7166166},{"name":"Troms\u00f8","state":"","country":"Norway","latitude":69.6492047,"longitude":18.9553239},{"name":"Budapest","state":"","country":"Hungary","latitude":47.497912,"longitude":19.040235},{"name":"Podgorica","state":"","country":"Montenegro","latitude":42.4304196,"longitude":19.2593642},{"name":"Tirana","state":"","country":"Albania","latitude":41.3275459,"longitude":19.8186982},{"name":"Novi Sad","state":"Vojvodina","country":"Serbia","latitude":45.2671352,"longitude":19.8335496},{"name":"Krak\u00f3w","state":"","country":"Poland","latitude":50.06465009999999,"longitude":19.9449799},{"name":"Benghazi","state":"","country":"Libya","latitude":32.1194242,"longitude":20.0867909},{"name":"Kiruna","state":"","country":"Sweden","latitude":67.8557995,"longitude":20.225282},{"name":"Ume\u00e5","state":"","country":"Sweden","latitude":63.8258471,"longitude":20.2630354},{"name":"Belgrade","state":"","country":"Serbia","latitude":44.786568,"longitude":20.4489216},{"name":"Kaliningrad","state":"Kaliningrad Oblast","country":"Russia","latitude":54.7104264,"longitude":20.4522144},{"name":"Skellefte\u00e5","state":"","country":"Sweden","latitude":64.750244,"longitude":20.950917},{"name":"Warsaw","state":"","country":"Poland","latitude":52.2296756,"longitude":21.0122287},{"name":"Pristina","state":"Kosovo","country":"Serbia","latitude":42.6629138,"longitude":21.1655028},{"name":"Skopje","state":"","country":"Macedonia","latitude":41.9973462,"longitude":21.4279956},{"name":"Pite\u00e5","state":"","country":"Sweden","latitude":65.316698,"longitude":21.4800363},{"name":"Vaasa","state":"","country":"Finland","latitude":63.09508899999999,"longitude":21.6164564},{"name":"Boden","state":"","country":"Sweden","latitude":65.8251188,"longitude":21.6887028},{"name":"Lule\u00e5","state":"","country":"Sweden","latitude":65.584819,"longitude":22.1567026},{"name":"Turku","state":"","country":"Finland","latitude":60.4518126,"longitude":22.2666302},{"name":"Thessaloniki","state":"","country":"Greece","latitude":40.6400629,"longitude":22.9444191},{"name":"Sofia","state":"","country":"Bulgaria","latitude":42.6977082,"longitude":23.3218675},{"name":"Cluj-Napoca","state":"","country":"Romania","latitude":46.7712101,"longitude":23.6236353},{"name":"Halkida","state":"","country":"Greece","latitude":38.4645245,"longitude":23.6050695},{"name":"Hammerfest","state":"","country":"Norway","latitude":70.6632359,"longitude":23.6817268},{"name":"Athena","state":"","country":"Greece","latitude":37.9838096,"longitude":23.7275388},{"name":"Tampere","state":"","country":"Finland","latitude":61.4977524,"longitude":23.7609535},{"name":"Craiova","state":"","country":"Romania","latitude":44.3301785,"longitude":23.7948807},{"name":"Lviv","state":"","country":"Ukraine","latitude":49.839683,"longitude":24.029717},{"name":"Riga","state":"","country":"Latvia","latitude":56.9496487,"longitude":24.1051865},{"name":"Haparanda","state":"","country":"Sweden","latitude":65.8417085,"longitude":24.1276643},{"name":"Tornio","state":"","country":"Finland","latitude":65.847301,"longitude":24.1520236},{"name":"Kemi","state":"","country":"Finland","latitude":65.73556789999999,"longitude":24.5657426},{"name":"Espoo","state":"","country":"Finland","latitude":60.2054911,"longitude":24.6559},{"name":"Tallinn","state":"","country":"Estonia","latitude":59.43696079999999,"longitude":24.7535747},{"name":"Helsinki","state":"","country":"Finland","latitude":60.16985569999999,"longitude":24.9383791},{"name":"Vantaa","state":"","country":"Finland","latitude":60.29335239999999,"longitude":25.0377686},{"name":"Heraklion","state":"","country":"Greece","latitude":35.3387352,"longitude":25.1442126},{"name":"Vilnius","state":"","country":"Lithuania","latitude":54.6871555,"longitude":25.2796514},{"name":"Oulu","state":"","country":"Finland","latitude":65.0120888,"longitude":25.4650772},{"name":"Lahti","state":"","country":"Finland","latitude":60.98267490000001,"longitude":25.6612096},{"name":"Rovaniemi","state":"","country":"Finland","latitude":66.50394779999999,"longitude":25.7293906},{"name":"Jyv\u00e4skyl\u00e4","state":"","country":"Finland","latitude":62.2426034,"longitude":25.7472567},{"name":"Bucharest","state":"","country":"Romania","latitude":44.4267674,"longitude":26.1025384},{"name":"Tartu","state":"","country":"Estonia","latitude":58.3776252,"longitude":26.7290062},{"name":"Pudasj\u00e4rvi","state":"","country":"Finland","latitude":65.36185329999999,"longitude":26.9858549},{"name":"Utsjoki","state":"","country":"Finland","latitude":69.9090465,"longitude":27.0285295},{"name":"\u0130zmir","state":"","country":"Turkey","latitude":38.423734,"longitude":27.142826},{"name":"Kemij\u00e4rvi","state":"","country":"Finland","latitude":66.7136282,"longitude":27.4292063},{"name":"Minsk","state":"","country":"Belarus","latitude":53.90453979999999,"longitude":27.5615244},{"name":"Kuopio","state":"","country":"Finland","latitude":62.89796999999999,"longitude":27.6781725},{"name":"Nuorgam","state":"Lapland","country":"Finland","latitude":70.08209,"longitude":27.8717747},{"name":"Chi\u015fin\u0103u","state":"","country":"Moldova","latitude":47.0104529,"longitude":28.8638102},{"name":"Istanbul","state":"","country":"Turkey","latitude":41.0082376,"longitude":28.9783589},{"name":"Bursa","state":"","country":"Turkey","latitude":40.1885281,"longitude":29.0609636},{"name":"Kuusamo","state":"","country":"Finland","latitude":65.9645876,"longitude":29.1886651},{"name":"Tiraspol","state":"Transnistria","country":"Moldova","latitude":46.84818500000001,"longitude":29.59680509999999},{"name":"Vads\u00f8","state":"","country":"Norway","latitude":70.15833409999999,"longitude":29.8116708},{"name":"Alexandria","state":"","country":"Egypt","latitude":31.2000924,"longitude":29.9187387},{"name":"Saint Petersburg","state":"","country":"Russia","latitude":59.9342802,"longitude":30.3350986},{"name":"Eskisehir","state":"","country":"Turkey","latitude":39.7667061,"longitude":30.52563109999999},{"name":"Kiev","state":"","country":"Ukraine","latitude":50.4501,"longitude":30.5234},{"name":"Odessa","state":"","country":"Ukraine","latitude":46.482526,"longitude":30.7233095},{"name":"Cairo","state":"","country":"Egypt","latitude":30.0444196,"longitude":31.2357116},{"name":"Juba","state":"","country":"South Sudan","latitude":4.859363,"longitude":31.57125},{"name":"Port Said","state":"","country":"Egypt","latitude":31.2652893,"longitude":32.3018661},{"name":"Entebbe","state":"","country":"Uganda","latitude":0.0511839,"longitude":32.463708},{"name":"Konya","state":"","country":"Turkey","latitude":37.8746429,"longitude":32.4931554},{"name":"Omdurman","state":"","country":"Sudan","latitude":15.6475782,"longitude":32.4806894},{"name":"Khartoum","state":"","country":"Sudan","latitude":15.5006544,"longitude":32.5598994},{"name":"Suez","state":"","country":"Egypt","latitude":29.9668343,"longitude":32.5498069},{"name":"Kampala","state":"","country":"Uganda","latitude":0.3475964,"longitude":32.5825197},{"name":"Luxor","state":"","country":"Egypt","latitude":25.6872431,"longitude":32.6396357},{"name":"Ankara","state":"","country":"Turkey","latitude":39.9333635,"longitude":32.8597419},{"name":"Murmansk","state":"Murmansk Oblast","country":"Russia","latitude":68.9585244,"longitude":33.0826597},{"name":"Nicosia","state":"","country":"Cyprus","latitude":35.1855659,"longitude":33.38227639999999},{"name":"Simferopol","state":"Crimea","country":"Russia","latitude":44.952117,"longitude":34.102417},{"name":"Gaza","state":"Gaza Strip","country":"Palestine","latitude":31.5016951,"longitude":34.4668445},{"name":"Mersin","state":"","country":"Turkey","latitude":36.8121041,"longitude":34.6414811},{"name":"Tel Aviv","state":"","country":"Israel","latitude":32.0852999,"longitude":34.78176759999999},{"name":"Eilat","state":"","country":"Israel","latitude":29.557669,"longitude":34.951925},{"name":"Jerusalem","state":"","country":"Israel","latitude":31.768319,"longitude":35.21371},{"name":"Adana","state":"","country":"Turkey","latitude":36.9914194,"longitude":35.3308285},{"name":"Beirut","state":"","country":"Lebanon","latitude":33.8937913,"longitude":35.5017767},{"name":"Latakia","state":"","country":"Syria","latitude":35.5407103,"longitude":35.7952667},{"name":"Amman","state":"","country":"Jordan","latitude":31.9453666,"longitude":35.9283716},{"name":"Kharkiv","state":"","country":"Ukraine","latitude":49.9935,"longitude":36.230383},{"name":"Damascus","state":"","country":"Syria","latitude":33.5138073,"longitude":36.2765279},{"name":"Gaziantep","state":"","country":"Turkey","latitude":37.065953,"longitude":37.37811},{"name":"Moscow","state":"","country":"Russia","latitude":55.755826,"longitude":37.6172999},{"name":"Addis Ababa","state":"","country":"Ethiopia","latitude":8.9806034,"longitude":38.7577605},{"name":"Asmara","state":"","country":"Eritrea","latitude":15.3228767,"longitude":38.9250517},{"name":"Krasnodar","state":"Krasnodar Krai","country":"Russia","latitude":45.03926740000001,"longitude":38.9872209},{"name":"Jeddah","state":"","country":"Saudi Arabia","latitude":21.2854067,"longitude":39.2375507},{"name":"Voronezh","state":"Voronezh Oblast","country":"Russia","latitude":51.6754966,"longitude":39.2088823},{"name":"Medina","state":"","country":"Saudi Arabia","latitude":24.5246542,"longitude":39.5691841},{"name":"Rostov-on-Don","state":"Rostov Oblast","country":"Russia","latitude":47.2357137,"longitude":39.701505},{"name":"Sochi","state":"Krasnodar Krai","country":"Russia","latitude":43.60280789999999,"longitude":39.7341543},{"name":"Mecca","state":"","country":"Saudi Arabia","latitude":21.3890824,"longitude":39.8579118},{"name":"Yaroslavl","state":"Yaroslavl Oblast","country":"Russia","latitude":57.62607440000001,"longitude":39.8844709},{"name":"Arkhangelsk","state":"Arkhangelsk Oblast","country":"Russia","latitude":64.54725069999999,"longitude":40.5601553},{"name":"Sukhumi","state":"Abkhazia","country":"Georgia","latitude":43.0015252,"longitude":41.0234153},{"name":"Mosul","state":"","country":"Iraq","latitude":36.3566484,"longitude":43.1640004},{"name":"Djibouti","state":"","country":"Djibouti","latitude":11.825138,"longitude":42.590275},{"name":"Tskhinvali","state":"South Ossetia","country":"Georgia","latitude":42.2214597,"longitude":43.9644051},{"name":"Nizhny Novgorod","state":"Nizhny Novgorod Oblast","country":"Russia","latitude":56.2965039,"longitude":43.93605900000001},{"name":"Arbil","state":"Iraqi Kurdistan","country":"Iraq","latitude":36.2062933,"longitude":44.0088697},{"name":"Hargeisa","state":"Somaliland","country":"Somalia","latitude":9.562389,"longitude":44.0770134},{"name":"Sana'a","state":"","country":"Yemen","latitude":15.3694451,"longitude":44.1910066},{"name":"Kirkuk","state":"","country":"Iraq","latitude":35.4655761,"longitude":44.38039209999999},{"name":"Baghdad","state":"","country":"Iraq","latitude":33.3128057,"longitude":44.3614875},{"name":"Volgograd","state":"Volgograd Oblast","country":"Russia","latitude":48.708048,"longitude":44.5133035},{"name":"Yerevan","state":"","country":"Armenia","latitude":40.1791857,"longitude":44.4991029},{"name":"Tbilisi","state":"","country":"Georgia","latitude":41.7151377,"longitude":44.827096},{"name":"Mogadishu","state":"","country":"Somalia","latitude":2.0469343,"longitude":45.3181623},{"name":"Saratov","state":"Saratov Oblast","country":"Russia","latitude":51.5923654,"longitude":45.9608031},{"name":"Tabriz","state":"","country":"Iran","latitude":38.096239,"longitude":46.2738013},{"name":"Riyadh","state":"","country":"Saudi Arabia","latitude":24.7135517,"longitude":46.6752957},{"name":"Stepanakert","state":"Artsakh","country":"Azerbaijan","latitude":39.82652789999999,"longitude":46.7655746},{"name":"Basra","state":"","country":"Iraq","latitude":30.5081033,"longitude":47.7834888},{"name":"Kuwait City","state":"","country":"Kuwait","latitude":29.375859,"longitude":47.9774052},{"name":"Kazan","state":"Republic of Tatarstan","country":"Russia","latitude":55.8304307,"longitude":49.06608060000001},{"name":"Tolyatti","state":"Samara Oblast","country":"Russia","latitude":53.5086002,"longitude":49.4198344},{"name":"Baku","state":"","country":"Azerbaijan","latitude":40.40926169999999,"longitude":49.8670924},{"name":"Samara","state":"Samara Oblast","country":"Russia","latitude":53.2415041,"longitude":50.2212463},{"name":"Dammam","state":"","country":"Saudi Arabia","latitude":26.3926665,"longitude":49.9777136},{"name":"Manama","state":"","country":"Bahrain","latitude":26.2285161,"longitude":50.5860497},{"name":"Tehran","state":"","country":"Iran","latitude":35.6891975,"longitude":51.3889736},{"name":"Doha","state":"","country":"Qatar","latitude":25.2854473,"longitude":51.53103979999999},{"name":"Isfahan","state":"","country":"Iran","latitude":32.6546275,"longitude":51.66798259999999},{"name":"Izhevsk","state":"Udmurt Republic","country":"Russia","latitude":56.86186009999999,"longitude":53.2324284},{"name":"Salalah","state":"","country":"Oman","latitude":17.0506675,"longitude":54.1065864},{"name":"Abu Dhabi","state":"","country":"United Arab Emirates","latitude":24.453884,"longitude":54.3773438},{"name":"Dubai","state":"","country":"United Arab Emirates","latitude":25.2048493,"longitude":55.2707828},{"name":"Ufa","state":"Republic of Bashkortostan","country":"Russia","latitude":54.7387621,"longitude":55.9720554},{"name":"Perm","state":"Perm Krai","country":"Russia","latitude":58.02968129999999,"longitude":56.2667916},{"name":"Ashgabat","state":"","country":"Turkmenistan","latitude":37.9600766,"longitude":58.32606289999999},{"name":"Muscat","state":"","country":"Oman","latitude":23.58589,"longitude":58.4059227},{"name":"Nukus","state":"Karakalpakstan","country":"Uzbekistan","latitude":42.461891,"longitude":59.6166312},{"name":"Mashhad","state":"","country":"Iran","latitude":36.2604623,"longitude":59.6167549},{"name":"Yekaterinburg","state":"Sverdlovsk Oblast","country":"Russia","latitude":56.83892609999999,"longitude":60.6057025},{"name":"Chelyabinsk","state":"Chelyabinsk Oblast","country":"Russia","latitude":55.1644419,"longitude":61.4368432},{"name":"Kandahar","state":"","country":"Afghanistan","latitude":31.628871,"longitude":65.7371749},{"name":"Karachi","state":"Sindh","country":"Pakistan","latitude":25.0700428,"longitude":67.2847875},{"name":"Hyderabad","state":"Sindh","country":"Pakistan","latitude":25.3959687,"longitude":68.357776},{"name":"Dushanbe","state":"","country":"Tajikistan","latitude":38.5597722,"longitude":68.7870384},{"name":"Kabul","state":"","country":"Afghanistan","latitude":34.5553494,"longitude":69.207486},{"name":"Tashkent","state":"","country":"Uzbekistan","latitude":41.2994958,"longitude":69.2400734},{"name":"Astana","state":"","country":"Kazakhstan","latitude":51.16052269999999,"longitude":71.4703558},{"name":"Multan","state":"Punjab","country":"Pakistan","latitude":30.157458,"longitude":71.5249154},{"name":"Peshawar","state":"Khyber Pakhtunkhwa","country":"Pakistan","latitude":34.0151366,"longitude":71.5249154},{"name":"Namangan","state":"","country":"Uzbekistan","latitude":41.0057729,"longitude":71.6436028},{"name":"Ahmedabad","state":"Gujarat","country":"India","latitude":23.022505,"longitude":72.5713621},{"name":"Mumbai (Bombay)","state":"Maharashtra","country":"India","latitude":19.0759837,"longitude":72.8776559},{"name":"Surat","state":"Gujarat","country":"India","latitude":21.1702401,"longitude":72.83106070000001},{"name":"Rawalpindi","state":"Punjab","country":"Pakistan","latitude":33.5651107,"longitude":73.0169135},{"name":"Islamabad","state":"Islamabad Capital Territory","country":"Pakistan","latitude":33.6600365,"longitude":73.2293542},{"name":"Faisalabad","state":"Punjab","country":"Pakistan","latitude":31.45036619999999,"longitude":73.13496049999999},{"name":"Omsk","state":"Omsk Oblast","country":"Russia","latitude":54.9884804,"longitude":73.3242361},{"name":"Mal\u00e9","state":"","country":"Maldives","latitude":4.1754959,"longitude":73.5093474},{"name":"Pune","state":"Maharashtra","country":"India","latitude":18.5204303,"longitude":73.8567437},{"name":"Lahore","state":"Punjab","country":"Pakistan","latitude":31.5203696,"longitude":74.35874729999999},{"name":"Bishkek","state":"","country":"Kyrgyzstan","latitude":42.8746212,"longitude":74.5697617},{"name":"Srinagar","state":"Jammu and Kashmir","country":"India","latitude":34.0836708,"longitude":74.7972825},{"name":"Amritsar","state":"Punjab","country":"India","latitude":31.6339793,"longitude":74.8722642},{"name":"Jaipur","state":"Rajasthan","country":"India","latitude":26.9124336,"longitude":75.7872709},{"name":"Ludhiana","state":"Punjab","country":"India","latitude":30.900965,"longitude":75.8572758},{"name":"Kochi","state":"Kerala","country":"India","latitude":9.9312328,"longitude":76.26730409999999},{"name":"Chandigarh","state":"","country":"India","latitude":30.7333148,"longitude":76.7794179},{"name":"Almaty","state":"","country":"Kazakhstan","latitude":43.2220146,"longitude":76.8512485},{"name":"Trivandrum","state":"Kerala","country":"India","latitude":8.5241391,"longitude":76.9366376},{"name":"Shimla","state":"Himachal Pradesh","country":"India","latitude":31.1048145,"longitude":77.17340329999999},{"name":"New Delhi","state":"Delhi","country":"India","latitude":28.6139391,"longitude":77.2090212},{"name":"Bangalore","state":"Karnataka","country":"India","latitude":12.9715987,"longitude":77.5945627},{"name":"Agra","state":"Uttar Pradesh","country":"India","latitude":27.1766701,"longitude":78.00807449999999},{"name":"Hyderabad","state":"Andhra Pradesh","country":"India","latitude":17.385044,"longitude":78.486671},{"name":"Nagpur","state":"Maharashtra","country":"India","latitude":21.1458004,"longitude":79.0881546},{"name":"Kulpahar","state":"Uttar Pradesh","country":"India","latitude":25.3087385,"longitude":79.63898209999999},{"name":"Colombo","state":"","country":"Sri Lanka","latitude":6.9270786,"longitude":79.861243},{"name":"Sri Jayawardenapura-Kotte","state":"","country":"Sri Lanka","latitude":6.894002899999999,"longitude":79.90515649999999},{"name":"Chennai (Madras)","state":"Tamil Nadu","country":"India","latitude":13.0826802,"longitude":80.2707184},{"name":"Kanpur","state":"Uttar Pradesh","country":"India","latitude":26.449923,"longitude":80.3318736},{"name":"Kandy","state":"","country":"Sri Lanka","latitude":7.2905715,"longitude":80.6337262},{"name":"Lucknow","state":"Uttar Pradesh","country":"India","latitude":26.8466937,"longitude":80.94616599999999},{"name":"Batticaloa","state":"","country":"Sri Lanka","latitude":7.730997100000001,"longitude":81.6747295},{"name":"Novosibirsk","state":"Novosibirsk Oblast","country":"Russia","latitude":55.00835259999999,"longitude":82.9357327},{"name":"Visakhapatnam","state":"Andhra Pradesh","country":"India","latitude":17.6868159,"longitude":83.2184815},{"name":"Patna","state":"Bihar","country":"India","latitude":25.5940947,"longitude":85.1375645},{"name":"Kathmandu","state":"","country":"Nepal","latitude":27.7172453,"longitude":85.3239605},{"name":"\u00dcr\u00fcmqi","state":"Xinjiang","country":"People's Republic of China","latitude":43.825592,"longitude":87.61684799999999},{"name":"Norilsk","state":"Krasnoyarsk Krai","country":"Russia","latitude":69.35579,"longitude":88.1892939},{"name":"Kolkata (Calcutta)","state":"West Bengal","country":"India","latitude":22.572646,"longitude":88.36389500000001},{"name":"Siliguri","state":"West Bengal","country":"India","latitude":26.7271012,"longitude":88.39528609999999},{"name":"Gangtok","state":"Sikkim","country":"India","latitude":27.3389356,"longitude":88.6065035},{"name":"Shigatse","state":"Tibet","country":"People's Republic of China","latitude":29.266869,"longitude":88.880583},{"name":"Thimphu","state":"","country":"Bhutan","latitude":27.4727924,"longitude":89.6392863},{"name":"Dhaka","state":"","country":"Bangladesh","latitude":23.810332,"longitude":90.4125181},{"name":"Lhasa","state":"Tibet","country":"People's Republic of China","latitude":29.65483799999999,"longitude":91.140552},{"name":"Agartala","state":"Tripura","country":"India","latitude":23.831457,"longitude":91.2867777},{"name":"Guwahati","state":"Assam","country":"India","latitude":26.1445169,"longitude":91.7362365},{"name":"Chittagong","state":"","country":"Bangladesh","latitude":22.356851,"longitude":91.7831819},{"name":"Shillong","state":"Meghalaya","country":"India","latitude":25.5787726,"longitude":91.8932535},{"name":"Port Blair","state":"Andaman and Nicobar Islands","country":"India","latitude":11.6233774,"longitude":92.7264828},{"name":"Tezpur","state":"Assam","country":"India","latitude":26.6528495,"longitude":92.7925592},{"name":"Krasnoyarsk","state":"Krasnoyarsk Krai","country":"Russia","latitude":56.01528339999999,"longitude":92.8932476},{"name":"Dibrugarh","state":"Assam","country":"India","latitude":27.4728327,"longitude":94.9119621},{"name":"Banda Aceh","state":"Aceh","country":"Indonesia","latitude":5.5482904,"longitude":95.3237559},{"name":"Naypyidaw","state":"","country":"Myanmar","latitude":19.7633057,"longitude":96.07851040000001},{"name":"Yangon","state":"","country":"Myanmar","latitude":16.8660694,"longitude":96.19513200000002},{"name":"Phuket","state":"","country":"Thailand","latitude":7.9519331,"longitude":98.33808839999999},{"name":"Medan","state":"North Sumatera","country":"Indonesia","latitude":3.5951956,"longitude":98.6722227},{"name":"Chiang Mai","state":"","country":"Thailand","latitude":18.7060641,"longitude":98.9817163},{"name":"Surat Thani","state":"","country":"Thailand","latitude":9.134194899999999,"longitude":99.3334198},{"name":"Chiang Rai","state":"","country":"Thailand","latitude":19.9104798,"longitude":99.840576},{"name":"George Town","state":"Penang","country":"Malaysia","latitude":5.4356367,"longitude":100.3091},{"name":"Alor Setar","state":"Kedah","country":"Malaysia","latitude":6.1248,"longitude":100.3678178},{"name":"Bangkok","state":"","country":"Thailand","latitude":13.7563309,"longitude":100.5017651},{"name":"Hat Yai","state":"","country":"Thailand","latitude":7.0086472,"longitude":100.4746879},{"name":"Ayutthaya","state":"","country":"Thailand","latitude":14.3692325,"longitude":100.5876634},{"name":"Pattaya","state":"","country":"Thailand","latitude":12.9235557,"longitude":100.8824551},{"name":"Ipoh","state":"Perak","country":"Malaysia","latitude":4.597479,"longitude":101.090106},{"name":"Pekanbaru","state":"Riau","country":"Indonesia","latitude":0.5070677,"longitude":101.4477793},{"name":"Bratsk","state":"Irkutsk Oblast","country":"Russia","latitude":56.17376609999999,"longitude":101.6038977},{"name":"Kuala Lumpur","state":"Federal Territory (Malaysia) Federal Territory","country":"Malaysia","latitude":3.139003,"longitude":101.686855},{"name":"Xining","state":"Qinghai","country":"People's Republic of China","latitude":36.617134,"longitude":101.778223},{"name":"Nakhon Ratchasima","state":"","country":"Thailand","latitude":14.9738493,"longitude":102.083652},{"name":"Kota Bharu","state":"Kelantan","country":"Malaysia","latitude":6.1167855,"longitude":102.2776838},{"name":"Malacca Town","state":"Malacca","country":"Malaysia","latitude":2.189594,"longitude":102.2500868},{"name":"Vientiane","state":"","country":"Laos","latitude":17.9757058,"longitude":102.6331035},{"name":"Kunming","state":"Yunnan","country":"People's Republic of China","latitude":24.880095,"longitude":102.832891},{"name":"Udon Thani","state":"","country":"Thailand","latitude":17.4138413,"longitude":102.7872325},{"name":"Khon Kaen","state":"","country":"Thailand","latitude":16.4321938,"longitude":102.8236214},{"name":"Johor Bahru","state":"Johor","country":"Malaysia","latitude":1.492659,"longitude":103.7413591},{"name":"Lanzhou","state":"Gansu","country":"People's Republic of China","latitude":36.061089,"longitude":103.834303},{"name":"Singapore","state":"","country":"Singapore","latitude":1.352083,"longitude":103.819836},{"name":"Siem Reap","state":"","country":"Cambodia","latitude":13.3670968,"longitude":103.8448134},{"name":"Chengdu","state":"Sichuan","country":"People's Republic of China","latitude":30.572815,"longitude":104.066801},{"name":"Irkutsk","state":"Irkutsk Oblast","country":"Russia","latitude":52.28697409999999,"longitude":104.3050183},{"name":"Phnom Penh","state":"","country":"Cambodia","latitude":11.5448729,"longitude":104.8921668},{"name":"Hanoi","state":"","country":"Vietnam","latitude":21.0277644,"longitude":105.8341598},{"name":"Chongqing","state":"","country":"People's Republic of China","latitude":29.56305,"longitude":106.551484},{"name":"Ho Chi Minh City","state":"","country":"Vietnam","latitude":10.8230989,"longitude":106.6296638},{"name":"Hai Phong","state":"","country":"Vietnam","latitude":20.8449115,"longitude":106.6880841},{"name":"Ulaanbaatar","state":"","country":"Mongolia","latitude":47.88639879999999,"longitude":106.9057439},{"name":"Hu\u1ebf","state":"","country":"Vietnam","latitude":16.4498,"longitude":107.5623501},{"name":"Da Nang","state":"","country":"Vietnam","latitude":16.0544068,"longitude":108.2021667},{"name":"Nanning","state":"Guangxi","country":"People's Republic of China","latitude":22.817002,"longitude":108.366543},{"name":"Xi'an","state":"Shaanxi","country":"People's Republic of China","latitude":34.341574,"longitude":108.93977},{"name":"Kuching","state":"Sarawak","country":"Malaysia","latitude":1.6076812,"longitude":110.3785438},{"name":"Taiyuan","state":"Shanxi","country":"People's Republic of China","latitude":37.87059,"longitude":112.548879},{"name":"Guangzhou","state":"Guangdong","country":"People's Republic of China","latitude":23.12911,"longitude":113.264385},{"name":"Macau","state":"","country":"People's Republic of China","latitude":22.198745,"longitude":113.543873},{"name":"Zhengzhou","state":"Henan","country":"People's Republic of China","latitude":34.746611,"longitude":113.625328},{"name":"Dongguan","state":"Guangdong","country":"People's Republic of China","latitude":23.020673,"longitude":113.751799},{"name":"Miri","state":"Sarawak","country":"Malaysia","latitude":4.399493,"longitude":113.9913832},{"name":"Shenzhen","state":"Guangdong","country":"People's Republic of China","latitude":22.543096,"longitude":114.057865},{"name":"Hong Kong","state":"","country":"People's Republic of China","latitude":22.396428,"longitude":114.109497},{"name":"Wuhan","state":"Hubei","country":"People's Republic of China","latitude":30.592849,"longitude":114.305539},{"name":"Handan","state":"Hebei","country":"People's Republic of China","latitude":36.625656,"longitude":114.538961},{"name":"Shijiazhuang","state":"Hebei","country":"People's Republic of China","latitude":38.042805,"longitude":114.514893},{"name":"Bandar Seri Begawan","state":"","country":"Brunei","latitude":4.903052199999999,"longitude":114.939821},{"name":"Kota Kinabalu","state":"Sabah","country":"Malaysia","latitude":5.980408,"longitude":116.0734568},{"name":"Beijing","state":"","country":"People's Republic of China","latitude":39.90419989999999,"longitude":116.4073963},{"name":"Jinan","state":"Shandong","country":"People's Republic of China","latitude":36.6512,"longitude":117.120095},{"name":"Tianjin","state":"","country":"People's Republic of China","latitude":39.3433574,"longitude":117.3616476},{"name":"Nanjing","state":"Jiangsu","country":"People's Republic of China","latitude":32.060255,"longitude":118.796877},{"name":"Hangzhou","state":"Zhejiang","country":"People's Republic of China","latitude":30.274084,"longitude":120.15507},{"name":"Tainan","state":"","country":"Republic of China (Taiwan)","latitude":22.9997281,"longitude":120.2270277},{"name":"Kaohsiung","state":"","country":"Republic of China (Taiwan)","latitude":22.6272784,"longitude":120.3014353},{"name":"Qingdao","state":"Shandong","country":"People's Republic of China","latitude":36.067108,"longitude":120.382609},{"name":"Taichung","state":"","country":"Republic of China (Taiwan)","latitude":24.1477358,"longitude":120.6736482},{"name":"Manila","state":"","country":"Philippines","latitude":14.5995124,"longitude":120.9842195},{"name":"Quezon City","state":"","country":"Philippines","latitude":14.6760413,"longitude":121.0437003},{"name":"Makati","state":"","country":"Philippines","latitude":14.554729,"longitude":121.0244452},{"name":"Shanghai","state":"","country":"People's Republic of China","latitude":31.2303904,"longitude":121.4737021},{"name":"Taipei","state":"","country":"Republic of China (Taiwan)","latitude":25.0329694,"longitude":121.5654177},{"name":"Dalian","state":"Liaoning","country":"People's Republic of China","latitude":38.91400300000001,"longitude":121.614682},{"name":"Zamboanga City","state":"","country":"Philippines","latitude":6.9214424,"longitude":122.0790267},{"name":"Iloilo City","state":"Iloilo","country":"Philippines","latitude":10.7201501,"longitude":122.5621063},{"name":"Shenyang","state":"Liaoning","country":"People's Republic of China","latitude":41.805699,"longitude":123.431472},{"name":"Tagbilaran","state":"Bohol","country":"Philippines","latitude":9.672948,"longitude":123.8730022},{"name":"Cebu City","state":"Cebu","country":"Philippines","latitude":10.3156992,"longitude":123.8854366},{"name":"Changchun","state":"Jilin","country":"People's Republic of China","latitude":43.817071,"longitude":125.323544},{"name":"Davao City","state":"Davao del Sur","country":"Philippines","latitude":7.190708,"longitude":125.455341},{"name":"Pyongyang","state":"","country":"North Korea","latitude":39.0392193,"longitude":125.7625241},{"name":"Kaesong","state":"North Hwanghae","country":"North Korea","latitude":37.9381943,"longitude":126.5877948},{"name":"Harbin","state":"Heilongjiang","country":"People's Republic of China","latitude":45.80377499999999,"longitude":126.534967},{"name":"Incheon","state":"","country":"South Korea","latitude":37.4562557,"longitude":126.7052062},{"name":"Seoul","state":"","country":"South Korea","latitude":37.566535,"longitude":126.9779692},{"name":"Wonsan","state":"Kangwon","country":"North Korea","latitude":39.1538529,"longitude":127.4460001},{"name":"Naha","state":"Okinawa","country":"Japan","latitude":26.2123124,"longitude":127.6791568},{"name":"Daegu","state":"","country":"South Korea","latitude":35.8714354,"longitude":128.601445},{"name":"Busan","state":"","country":"South Korea","latitude":35.1795543,"longitude":129.0756416},{"name":"Yakutsk","state":"Sakha Republic","country":"Russia","latitude":62.0354523,"longitude":129.6754745},{"name":"Chongjin","state":"North Hamgyong","country":"North Korea","latitude":41.7669671,"longitude":129.723402},{"name":"Fukuoka","state":"Fukuoka","country":"Japan","latitude":33.5903547,"longitude":130.4017155},{"name":"Vladivostok","state":"Primorsky Krai","country":"Russia","latitude":43.1198091,"longitude":131.8869243},{"name":"Hiroshima","state":"Hiroshima","country":"Japan","latitude":34.3852029,"longitude":132.4552927},{"name":"Verkhoyansk","state":"Sakha Republic","country":"Russia","latitude":67.5505925,"longitude":133.3993398},{"name":"Koror","state":"","country":"Palau","latitude":7.3375646,"longitude":134.4889469},{"name":"Melekeok","state":"","country":"Palau","latitude":7.515028599999999,"longitude":134.5972518},{"name":"K\u014dbe","state":"Hyogo","country":"Japan","latitude":34.690083,"longitude":135.1955112},{"name":"Osaka","state":"Osaka","country":"Japan","latitude":34.6937378,"longitude":135.5021651},{"name":"Kyoto","state":"Kyoto","country":"Japan","latitude":35.0116363,"longitude":135.7680294},{"name":"Nagoya","state":"Aichi","country":"Japan","latitude":35.1814464,"longitude":136.906398},{"name":"Yokohama","state":"Kanagawa","country":"Japan","latitude":35.4437078,"longitude":139.6380256},{"name":"Tokyo","state":"","country":"Japan","latitude":35.6894875,"longitude":139.6917064},{"name":"Kawasaki","state":"Kanagawa","country":"Japan","latitude":35.52981980000001,"longitude":139.7024039},{"name":"Sendai","state":"Miyagi","country":"Japan","latitude":38.268215,"longitude":140.8693558},{"name":"Sapporo","state":"Hokkaido","country":"Japan","latitude":43.0620958,"longitude":141.3543763},{"name":"Hag\u00e5t\u00f1a","state":"Guam","country":"United States","latitude":13.4762824,"longitude":144.7502228},{"name":"Dededo","state":"Guam","country":"United States","latitude":13.5452512,"longitude":144.851121},{"name":"Nemuro","state":"Hokkaido","country":"Japan","latitude":43.3300759,"longitude":145.5827903},{"name":"Saipan","state":"Northern Mariana Islands","country":"United States","latitude":15.0979,"longitude":145.6739},{"name":"Magadan","state":"Magadan Oblast","country":"Russia","latitude":59.5611525,"longitude":150.8301413},{"name":"Weno","state":"","country":"Federated States of Micronesia","latitude":7.4399983,"longitude":151.8584892},{"name":"Palikir","state":"","country":"Federated States of Micronesia","latitude":6.9147118,"longitude":158.1610274},{"name":"Petropavlovsk-Kamchatsky","state":"Kamchatka Krai","country":"Russia","latitude":53.0409109,"longitude":158.677726},{"name":"Majuro","state":"","country":"Marshall Islands","latitude":7.1164214,"longitude":171.1857736},{"name":"South Tarawa","state":"","country":"Kiribati","latitude":1.433333,"longitude":173},{"name":"Anadyr","state":"Chukotka Autonomous Okrug","country":"Russia","latitude":64.7336613,"longitude":177.4968265},{"name":"Rabi Island","state":"","country":"Fiji","latitude":-16.4994837,"longitude":-179.9533441},{"name":"Mata-Utu","state":"Wallis and Futuna","country":"France","latitude":-13.2825091,"longitude":-176.1764475},{"name":"Nuku\u02bbalofa","state":"","country":"Tonga","latitude":-21.1393418,"longitude":-175.204947},{"name":"Apia","state":"","country":"Samoa","latitude":-13.8506958,"longitude":-171.7513551},{"name":"Pago Pago","state":"American Samoa","country":"United States","latitude":-14.331389,"longitude":-170.711389},{"name":"Alofi","state":"Niue","country":"New Zealand","latitude":-19.0553711,"longitude":-169.9178709},{"name":"Avarua","state":"Cook Islands","country":"New Zealand","latitude":-21.2129007,"longitude":-159.7823059},{"name":"Papeete","state":"French Polynesia","country":"France","latitude":-17.5516251,"longitude":-149.5584758},{"name":"Adamstown","state":"Pitcairn Islands","country":"United Kingdom","latitude":0,"longitude":0},{"name":"Hanga Roa","state":"Easter Island","country":"Chile","latitude":-27.15,"longitude":-109.4333},{"name":"Guayaquil","state":"","country":"Ecuador","latitude":-2.1709979,"longitude":-79.9223592},{"name":"Trujillo","state":"","country":"Peru","latitude":-8.1090524,"longitude":-79.0215336},{"name":"Quito","state":"","country":"Ecuador","latitude":-0.1806532,"longitude":-78.4678382},{"name":"Lima","state":"","country":"Peru","latitude":-12.0463731,"longitude":-77.042754},{"name":"Ayacucho","state":"","country":"Peru","latitude":-13.1638737,"longitude":-74.22356409999999},{"name":"Iquitos","state":"","country":"Peru","latitude":-3.7436735,"longitude":-73.25163260000001},{"name":"Valdivia","state":"","country":"Chile","latitude":-39.8195857,"longitude":-73.2452103},{"name":"Concepci\u00f3n","state":"","country":"Chile","latitude":-36.8201352,"longitude":-73.0443904},{"name":"Puerto Montt","state":"","country":"Chile","latitude":-41.468917,"longitude":-72.94113639999999},{"name":"Puerto Ais\u00e9n","state":"","country":"Chile","latitude":-45.4035437,"longitude":-72.6864154},{"name":"Temuco","state":"","country":"Chile","latitude":-38.7359018,"longitude":-72.5903739},{"name":"Coihaique","state":"","country":"Chile","latitude":-45.5712254,"longitude":-72.068265},{"name":"Cusco","state":"","country":"Peru","latitude":-13.53195,"longitude":-71.96746259999999},{"name":"Valpara\u00edso","state":"","country":"Chile","latitude":-33.047238,"longitude":-71.61268849999999},{"name":"Arequipa","state":"","country":"Peru","latitude":-16.4090474,"longitude":-71.53745099999999},{"name":"San Carlos de Bariloche","state":"R\u00edo Negro Province R\u00edo Negro","country":"Argentina","latitude":-41.1334722,"longitude":-71.3102778},{"name":"La Serena","state":"","country":"Chile","latitude":-29.9026691,"longitude":-71.2519374},{"name":"Punta Arenas","state":"","country":"Chile","latitude":-53.1638329,"longitude":-70.9170683},{"name":"Santiago","state":"","country":"Chile","latitude":-33.4488897,"longitude":-70.6692655},{"name":"Antofagasta","state":"","country":"Chile","latitude":-23.6509279,"longitude":-70.39750219999999},{"name":"Arica","state":"","country":"Chile","latitude":-18.4782534,"longitude":-70.3125988},{"name":"Copiap\u00f3","state":"","country":"Chile","latitude":-27.3665763,"longitude":-70.3321587},{"name":"Iquique","state":"","country":"Chile","latitude":-20.2307033,"longitude":-70.1356692},{"name":"R\u00edo Gallegos","state":"Santa Cruz","country":"Argentina","latitude":-51.6230485,"longitude":-69.2168291},{"name":"Calama","state":"","country":"Chile","latitude":-22.4543923,"longitude":-68.9293819},{"name":"Mendoza","state":"Mendoza","country":"Argentina","latitude":-32.8894587,"longitude":-68.8458386},{"name":"Ushuaia","state":"Tierra del Fuego","country":"Argentina","latitude":-54.8019121,"longitude":-68.3029511},{"name":"La Paz","state":"","country":"Bolivia","latitude":-16.489689,"longitude":-68.11929359999999},{"name":"Rio Branco","state":"Acre","country":"Brazil","latitude":-9.975383700000002,"longitude":-67.824918},{"name":"Puerto Williams","state":"","country":"Chile","latitude":-54.9352098,"longitude":-67.6058537},{"name":"Comodoro Rivadavia","state":"Chubut","country":"Argentina","latitude":-45.8656149,"longitude":-67.4822429},{"name":"Puerto Toro","state":"","country":"Chile","latitude":-25.2083381,"longitude":-69.8432231},{"name":"Salta","state":"Salta","country":"Argentina","latitude":-24.7821269,"longitude":-65.4231976},{"name":"Trelew","state":"Chubut","country":"Argentina","latitude":-43.2493016,"longitude":-65.30763510000001},{"name":"Sucre","state":"","country":"Bolivia","latitude":-19.0195852,"longitude":-65.2619615},{"name":"San Miguel de Tucum\u00e1n","state":"Tucum\u00e1n","country":"Argentina","latitude":-26.8082848,"longitude":-65.2175903},{"name":"C\u00f3rdoba","state":"C\u00f3rdoba","country":"Argentina","latitude":-31.42008329999999,"longitude":-64.1887761},{"name":"Porto Velho","state":"Rond\u00f4nia","country":"Brazil","latitude":-8.761160499999999,"longitude":-63.9004303},{"name":"Santa Cruz de la Sierra","state":"","country":"Bolivia","latitude":-17.8145819,"longitude":-63.1560853},{"name":"Bah\u00eda Blanca","state":"Buenos Aires Province","country":"Argentina","latitude":-38.7183177,"longitude":-62.2663478},{"name":"Rosario","state":"Santa Fe","country":"Argentina","latitude":-32.9442426,"longitude":-60.65053880000001},{"name":"Manaus","state":"Amazonas","country":"Brazil","latitude":-3.1190275,"longitude":-60.0217314},{"name":"Buenos Aires","state":"","country":"Argentina","latitude":-34.6036844,"longitude":-58.3815591},{"name":"Stanley","state":"Falkland Islands","country":"United Kingdom","latitude":-51.6922104,"longitude":-57.85634890000001},{"name":"Asunci\u00f3n","state":"","country":"Paraguay","latitude":-25.2637399,"longitude":-57.57592599999999},{"name":"Montevideo","state":"","country":"Uruguay","latitude":-34.9011127,"longitude":-56.16453139999999},{"name":"Cuiab\u00e1","state":"Mato Grosso","country":"Brazil","latitude":-15.6014109,"longitude":-56.0978917},{"name":"Sinop","state":"Mato Grosso","country":"Brazil","latitude":-11.8608456,"longitude":-55.5095451},{"name":"Ciudad del Este","state":"","country":"Paraguay","latitude":-25.5085286,"longitude":-54.6753231},{"name":"Campo Grande","state":"Mato Grosso do Sul","country":"Brazil","latitude":-20.4697105,"longitude":-54.6201211},{"name":"Chu\u00ed","state":"Rio Grande do Sul","country":"Brazil","latitude":-33.6895531,"longitude":-53.447315},{"name":"Pelotas","state":"Rio Grande do Sul","country":"Brazil","latitude":-31.7653989,"longitude":-52.3375886},{"name":"Porto Alegre","state":"Rio Grande do Sul","country":"Brazil","latitude":-30.0346471,"longitude":-51.2176584},{"name":"Assis","state":"S\u00e3o Paulo","country":"Brazil","latitude":-22.6604341,"longitude":-50.4187813},{"name":"S\u00e3o Jos\u00e9 do Rio Preto","state":"S\u00e3o Paulo","country":"Brazil","latitude":-20.811761,"longitude":-49.3762272},{"name":"Goi\u00e2nia","state":"Goi\u00e1s","country":"Brazil","latitude":-16.6868824,"longitude":-49.26478849999999},{"name":"Curitiba","state":"Paran\u00e1","country":"Brazil","latitude":-25.4244287,"longitude":-49.2653819},{"name":"Bauru","state":"S\u00e3o Paulo","country":"Brazil","latitude":-22.314459,"longitude":-49.0586951},{"name":"Bel\u00e9m","state":"Par\u00e1","country":"Brazil","latitude":-1.4557794,"longitude":-48.4901968},{"name":"Florian\u00f3polis","state":"Santa Catarina","country":"Brazil","latitude":-27.5948698,"longitude":-48.54821949999999},{"name":"Palmas","state":"Tocantins","country":"Brazil","latitude":-10.249091,"longitude":-48.32428580000001},{"name":"Uberl\u00e2ndia","state":"Minas Gerais","country":"Brazil","latitude":-18.9146078,"longitude":-48.2753801},{"name":"Araraquara","state":"S\u00e3o Paulo","country":"Brazil","latitude":-21.7848272,"longitude":-48.1786486},{"name":"Bras\u00edlia","state":"Federal District (Brazil) Distrito Federal","country":"Brazil","latitude":-15.7942287,"longitude":-47.8821658},{"name":"Ribeir\u00e3o Preto","state":"S\u00e3o Paulo","country":"Brazil","latitude":-21.1704008,"longitude":-47.8103238},{"name":"Imperatriz","state":"Maranh\u00e3o","country":"Brazil","latitude":-5.5205508,"longitude":-47.4718408},{"name":"Campinas","state":"S\u00e3o Paulo","country":"Brazil","latitude":-22.9098833,"longitude":-47.0625812},{"name":"S\u00e3o Paulo","state":"S\u00e3o Paulo","country":"Brazil","latitude":-23.5505199,"longitude":-46.63330939999999},{"name":"Po\u00e7os de Caldas","state":"Minas Gerais","country":"Brazil","latitude":-21.7853787,"longitude":-46.5619303},{"name":"S\u00e3o Jos\u00e9 dos Campos","state":"S\u00e3o Paulo","country":"Brazil","latitude":-23.223701,"longitude":-45.9009074},{"name":"S\u00e3o Lu\u00eds","state":"Maranh\u00e3o","country":"Brazil","latitude":-2.5391099,"longitude":-44.28290459999999},{"name":"Belo Horizonte","state":"Minas Gerais","country":"Brazil","latitude":-19.9245018,"longitude":-43.93523760000001},{"name":"Juiz de Fora","state":"Minas Gerais","country":"Brazil","latitude":-21.7624237,"longitude":-43.3433999},{"name":"Rio de Janeiro","state":"Rio de Janeiro","country":"Brazil","latitude":-22.9068467,"longitude":-43.1728965},{"name":"Teresina","state":"Piau\u00ed","country":"Brazil","latitude":-5.0920108,"longitude":-42.80375970000001},{"name":"Governador Valadares","state":"Minas Gerais","country":"Brazil","latitude":-18.8549317,"longitude":-41.95592329999999},{"name":"Petrolina","state":"Pernambuco","country":"Brazil","latitude":-9.389083,"longitude":-40.5030961},{"name":"Vit\u00f3ria","state":"Esp\u00edrito Santo","country":"Brazil","latitude":-20.2976178,"longitude":-40.2957768},{"name":"Sobral","state":"Cear\u00e1","country":"Brazil","latitude":-3.701499,"longitude":-40.3496894},{"name":"Juazeiro do Norte","state":"Cear\u00e1","country":"Brazil","latitude":-7.228472699999999,"longitude":-39.3121233},{"name":"Ilh\u00e9us","state":"Bahia","country":"Brazil","latitude":-14.7935051,"longitude":-39.0463797},{"name":"Fortaleza","state":"Cear\u00e1","country":"Brazil","latitude":-3.7319029,"longitude":-38.5267393},{"name":"Salvador","state":"Bahia","country":"Brazil","latitude":-12.9722184,"longitude":-38.5014136},{"name":"Aracaju","state":"Sergipe","country":"Brazil","latitude":-10.9472468,"longitude":-37.0730823},{"name":"Grytviken","state":"South Georgia and the South Sandwich Islands","country":"United Kingdom","latitude":-54.281149,"longitude":-36.5087385},{"name":"Garanhuns","state":"Pernambuco","country":"Brazil","latitude":-8.882855100000002,"longitude":-36.4968966},{"name":"Caruaru","state":"Pernambuco","country":"Brazil","latitude":-8.2849639,"longitude":-35.9701874},{"name":"Campina Grande","state":"Para\u00edba","country":"Brazil","latitude":-7.2290752,"longitude":-35.8808337},{"name":"Macei\u00f3","state":"Alagoas","country":"Brazil","latitude":-9.6498487,"longitude":-35.7089492},{"name":"Natal","state":"Rio Grande do Norte","country":"Brazil","latitude":-5.7792569,"longitude":-35.200916},{"name":"Recife","state":"Pernambuco","country":"Brazil","latitude":-8.0475622,"longitude":-34.8769643},{"name":"Jo\u00e3o Pessoa","state":"Para\u00edba","country":"Brazil","latitude":-7.119495799999999,"longitude":-34.8450118},{"name":"Fernando de Noronha","state":"Pernambuco","country":"Brazil","latitude":-3.8447976,"longitude":-32.4268917},{"name":"Jamestown","state":"Saint Helena","country":"United Kingdom","latitude":-15.9286343,"longitude":-5.7151749},{"name":"Luanda","state":"","country":"Angola","latitude":-8.839987599999999,"longitude":13.2894368},{"name":"Brazzaville","state":"","country":"Republic of the Congo","latitude":-4.2633597,"longitude":15.2428853},{"name":"Kinshasa","state":"","country":"Democratic Republic of the Congo","latitude":-4.4419311,"longitude":15.2662931},{"name":"Huambo","state":"","country":"Angola","latitude":-12.7739761,"longitude":15.7468535},{"name":"Windhoek","state":"","country":"Namibia","latitude":-22.5608807,"longitude":17.0657549},{"name":"Cape Town","state":"Western Cape","country":"South Africa","latitude":-33.9248685,"longitude":18.4240553},{"name":"Kimberley","state":"Northern Cape","country":"South Africa","latitude":-28.7282384,"longitude":24.7499112},{"name":"Port Elizabeth","state":"Eastern Cape","country":"South Africa","latitude":-33.7139247,"longitude":25.5207358},{"name":"Mafikeng","state":"North West","country":"South Africa","latitude":-25.855978,"longitude":25.64031},{"name":"Livingstone","state":"","country":"Zambia","latitude":-17.8519791,"longitude":25.8285153},{"name":"Gaborone","state":"","country":"Botswana","latitude":-24.6282079,"longitude":25.9231471},{"name":"Bloemfontein","state":"Free State","country":"South Africa","latitude":-29.085214,"longitude":26.1595761},{"name":"Bhisho","state":"Eastern Cape","country":"South Africa","latitude":-32.849876,"longitude":27.4409557},{"name":"Lubumbashi","state":"","country":"Democratic Republic of the Congo","latitude":-11.6876026,"longitude":27.5026174},{"name":"Maseru","state":"","country":"Lesotho","latitude":-29.36321879999999,"longitude":27.5143603},{"name":"Francistown","state":"","country":"Botswana","latitude":-21.1661005,"longitude":27.5143603},{"name":"Johannesburg","state":"Gauteng","country":"South Africa","latitude":-26.2041028,"longitude":28.0473051},{"name":"Pretoria","state":"Gauteng","country":"South Africa","latitude":-25.7478676,"longitude":28.2292712},{"name":"Lusaka","state":"","country":"Zambia","latitude":-15.3875259,"longitude":28.3228165},{"name":"Bulawayo","state":"Bulawayo","country":"Zimbabwe","latitude":-20.1325066,"longitude":28.626479},{"name":"Ndola","state":"","country":"Zambia","latitude":-12.9906407,"longitude":28.6498144},{"name":"Bujumbura","state":"","country":"Burundi","latitude":-3.361378,"longitude":29.3598782},{"name":"Polokwane","state":"Limpopo","country":"South Africa","latitude":-23.8961708,"longitude":29.4486263},{"name":"Gweru","state":"Midlands","country":"Zimbabwe","latitude":-19.468531,"longitude":29.8120795},{"name":"Kigali","state":"","country":"Rwanda","latitude":-1.9705786,"longitude":30.1044288},{"name":"Pietermaritzburg","state":"KwaZulu-Natal","country":"South Africa","latitude":-29.6006068,"longitude":30.3794118},{"name":"Nelspruit","state":"Mpumalanga","country":"South Africa","latitude":-25.4752984,"longitude":30.9694163},{"name":"Harare","state":"Harare","country":"Zimbabwe","latitude":-17.8251657,"longitude":31.03351},{"name":"Durban","state":"KwaZulu-Natal","country":"South Africa","latitude":-29.85868039999999,"longitude":31.0218404},{"name":"Mbabane","state":"","country":"Swaziland","latitude":-26.3054482,"longitude":31.1366715},{"name":"Lobamba","state":"","country":"Swaziland","latitude":-26.400429,"longitude":31.1824925},{"name":"Manzini","state":"","country":"Swaziland","latitude":-26.5081999,"longitude":31.3713164},{"name":"Mutare","state":"Manicaland","country":"Zimbabwe","latitude":-18.9757714,"longitude":32.650351},{"name":"Maputo","state":"","country":"Mozambique","latitude":-25.891968,"longitude":32.6051351},{"name":"Mwanza","state":"","country":"Tanzania","latitude":-2.5164305,"longitude":32.9174517},{"name":"Lilongwe","state":"","country":"Malawi","latitude":-13.9626121,"longitude":33.7741195},{"name":"Blantyre","state":"","country":"Malawi","latitude":-15.7666707,"longitude":35.0167866},{"name":"Dodoma","state":"","country":"Tanzania","latitude":-6.162959000000001,"longitude":35.7516069},{"name":"Nairobi","state":"","country":"Kenya","latitude":-1.2920659,"longitude":36.8219462},{"name":"Zanzibar City","state":"","country":"Tanzania","latitude":-6.165916999999999,"longitude":39.202641},{"name":"Dar es Salaam","state":"","country":"Tanzania","latitude":-6.792354,"longitude":39.2083284},{"name":"Mombasa","state":"","country":"Kenya","latitude":-4.0434771,"longitude":39.6682065},{"name":"Kismayo","state":"","country":"Somalia","latitude":-0.3560455,"longitude":42.5460573},{"name":"Moroni","state":"","country":"Comoros","latitude":-11.7172157,"longitude":43.2473146},{"name":"Mamoudzou","state":"Mayotte","country":"France","latitude":-12.7809488,"longitude":45.227872},{"name":"Antananarivo","state":"","country":"Madagascar","latitude":-18.8791902,"longitude":47.5079055},{"name":"Saint-Denis","state":"R\u00e9union","country":"France","latitude":-20.8906596,"longitude":55.4550536},{"name":"Victoria","state":"","country":"Seychelles","latitude":-4.619143,"longitude":55.4513149},{"name":"Port Louis","state":"","country":"Mauritius","latitude":-20.1608912,"longitude":57.5012222},{"name":"Padang","state":"West Sumatera","country":"Indonesia","latitude":-0.9470831999999999,"longitude":100.417181},{"name":"Palembang","state":"South Sumatera","country":"Indonesia","latitude":-2.9760735,"longitude":104.7754307},{"name":"Jakarta","state":"Jakarta","country":"Indonesia","latitude":-6.17511,"longitude":106.8650395},{"name":"Bogor","state":"West Java","country":"Indonesia","latitude":-6.597146899999999,"longitude":106.8060388},{"name":"Bandung","state":"West Java","country":"Indonesia","latitude":-6.9174639,"longitude":107.6191228},{"name":"Pontianak","state":"West Kalimantan","country":"Indonesia","latitude":-0.0263303,"longitude":109.3425039},{"name":"Yogyakarta","state":"Special Region of Yogyakarta","country":"Indonesia","latitude":-7.7955798,"longitude":110.3694896},{"name":"Semarang","state":"Central Java","country":"Indonesia","latitude":-7.0051453,"longitude":110.4381254},{"name":"Malang","state":"East Java","country":"Indonesia","latitude":-7.9666204,"longitude":112.6326321},{"name":"Surabaya","state":"East Java","country":"Indonesia","latitude":-7.2574719,"longitude":112.7520883},{"name":"Denpasar","state":"Bali","country":"Indonesia","latitude":-8.670458199999999,"longitude":115.2126293},{"name":"Mandurah","state":"Western Australia","country":"Australia","latitude":-32.5361038,"longitude":115.7424077},{"name":"Perth","state":"Western Australia","country":"Australia","latitude":-31.9505269,"longitude":115.8604572},{"name":"Balikpapan","state":"East Kalimantan","country":"Indonesia","latitude":-1.2379274,"longitude":116.8528526},{"name":"Port Hedland","state":"Western Australia","country":"Australia","latitude":-20.3106621,"longitude":118.5878223},{"name":"Makassar","state":"South Sulawesi","country":"Indonesia","latitude":-5.147665099999999,"longitude":119.4327314},{"name":"Dili","state":"","country":"Timor-Leste","latitude":-8.5568557,"longitude":125.5603143},{"name":"Ambon","state":"Maluku","country":"Indonesia","latitude":-3.6553932,"longitude":128.1907723},{"name":"Darwin","state":"Northern Territory","country":"Australia","latitude":-12.4634403,"longitude":130.8456418},{"name":"Adelaide","state":"South Australia","country":"Australia","latitude":-34.9284989,"longitude":138.6007456},{"name":"Jayapura","state":"Papua","country":"Indonesia","latitude":-2.5916025,"longitude":140.6689995},{"name":"Geelong","state":"Victoria","country":"Australia","latitude":-38.1499181,"longitude":144.3617186},{"name":"Melbourne","state":"Victoria (Australia) Victoria","country":"Australia","latitude":-37.8136276,"longitude":144.9630576},{"name":"Cairns","state":"Queensland","country":"Australia","latitude":-16.9185514,"longitude":145.7780548},{"name":"Townsville","state":"Queensland","country":"Australia","latitude":-19.2589635,"longitude":146.8169483},{"name":"Port Moresby","state":"","country":"Papua New Guinea","latitude":-9.4780123,"longitude":147.1506542},{"name":"Hobart","state":"Tasmania","country":"Australia","latitude":-42.8821377,"longitude":147.3271949},{"name":"Canberra","state":"Australian Capital Territory","country":"Australia","latitude":-35.2809368,"longitude":149.1300092},{"name":"Rockhampton","state":"Queensland","country":"Australia","latitude":-23.3790772,"longitude":150.510016},{"name":"Wollongong","state":"New South Wales","country":"Australia","latitude":-34.4278121,"longitude":150.8930607},{"name":"Sydney","state":"New South Wales","country":"Australia","latitude":-33.8688197,"longitude":151.2092955},{"name":"Newcastle","state":"New South Wales","country":"Australia","latitude":-32.9282712,"longitude":151.7816802},{"name":"Brisbane","state":"Queensland","country":"Australia","latitude":-27.4697707,"longitude":153.0251235},{"name":"Gold Coast","state":"Queensland","country":"Australia","latitude":-28.016667,"longitude":153.4},{"name":"Honiara","state":"","country":"Solomon Islands","latitude":-9.4456381,"longitude":159.9728999},{"name":"Noum\u00e9a","state":"New Caledonia","country":"France","latitude":-22.2558234,"longitude":166.4505243},{"name":"Yaren District","state":"","country":"Nauru","latitude":-0.5466856999999999,"longitude":166.9210913},{"name":"Kingston","state":"Norfolk Island","country":"Australia","latitude":-29.0563937,"longitude":167.959588},{"name":"Port Vila","state":"","country":"Vanuatu","latitude":-17.7332512,"longitude":168.3273245},{"name":"Invercargill","state":"","country":"New Zealand","latitude":-46.4131866,"longitude":168.3537731},{"name":"Dunedin","state":"","country":"New Zealand","latitude":-45.8787605,"longitude":170.5027976},{"name":"Christchurch","state":"","country":"New Zealand","latitude":-43.5320544,"longitude":172.6362254},{"name":"Nelson","state":"","country":"New Zealand","latitude":-41.2706319,"longitude":173.2839653},{"name":"Auckland","state":"","country":"New Zealand","latitude":-36.8484597,"longitude":174.7633315},{"name":"Wellington","state":"","country":"New Zealand","latitude":-41.2864603,"longitude":174.776236},{"name":"Hamilton","state":"","country":"New Zealand","latitude":-37.7870012,"longitude":175.279253},{"name":"Hastings","state":"","country":"New Zealand","latitude":-39.6395783,"longitude":176.8392322},{"name":"Suva","state":"","country":"Fiji","latitude":-18.1248086,"longitude":178.4500789},{"name":"Funafuti","state":"","country":"Tuvalu","latitude":-8.5211471,"longitude":179.1961926},{"name":"Labasa","state":"","country":"Fiji","latitude":-16.4307926,"longitude":179.3629995},{"name":"Nukulaelae","state":"","country":"Tuvalu","latitude":-9.381110999999999,"longitude":179.852222}]
